$GPGGA,095116.000,4919.6814,N,01121.1601,E,1,05,1.4,470.8,M,47.7,M,,0000*52
$GPGSA,A,3,31,01,20,04,11,,,,,,,,2.6,1.4,2.2*36
$GPRMC,095116.000,A,4919.6814,N,01121.1601,E,0.41,166.19,190507,,*04
$GPGGA,095117.000,4919.6818,N,01121.1601,E,1,05,1.4,471.1,M,47.7,M,,0000*57
$GPGSA,A,3,31,01,20,04,11,,,,,,,,2.6,1.4,2.2*36
$GPRMC,095117.000,A,4919.6818,N,01121.1601,E,0.69,6.95,190507,,*00
$GPGGA,095118.000,4919.6819,N,01121.1600,E,1,05,1.4,471.0,M,47.7,M,,0000*59
$GPGSA,A,3,31,01,20,04,11,,,,,,,,2.6,1.4,2.2*36
$GPRMC,095118.000,A,4919.6819,N,01121.1600,E,0.13,53.64,190507,,*3C
$GPGGA,095119.000,4919.6819,N,01121.1600,E,1,05,1.4,471.0,M,47.7,M,,0000*58
$GPGSA,A,3,31,01,20,04,11,,,,,,,,2.6,1.4,2.2*36
$GPGSV,2,1,08,20,76,057,35,23,55,200,16,11,40,158,22,01,38,052,42*72
$GPGSV,2,2,08,17,36,266,24,31,27,063,35,13,24,211,17,04,15,308,26*7D
$GPRMC,095119.000,A,4919.6819,N,01121.1600,E,0.32,22.55,190507,,*3A
$GPGGA,095120.000,4919.6821,N,01121.1600,E,1,05,1.4,471.0,M,47.7,M,,0000*59
$GPGSA,A,3,31,01,20,04,11,,,,,,,,2.6,1.4,2
$GPRMC,095120.000,A,4919.6821,N,01121.1600,E,0.25,157.40,190507,,*0A
$GPGGA,095121.000,4919.6821,N,01121.1599,E,1,05,1.4,471.0,M,47.7,M,,0000*5B
$GPGSA,A,3,31,01,20,04,11,,,,,,,,2.6,1.4,2.2*36
$GPRMC,095121.000,A,4919.6821,N,01121.1599,E,0.24,152.06,190507,,*0E
$GPGGA,095122.000,4919.6818,N,01121.1599,E,1,05,1.4,470.7,M,47.7,M,,0000*54
$GPGSA,A,3,31,01,20,04,11,,,,,,,,2.6,1.4,2.2*36
$GPRMC,095122.000,A,4919.6818,N,01121.1599,E,0.55,165.72,190507,,*06
$GPGGA,095123.000,4919.6818,N,01121.1599,E,1,05,1.4,470.6,M,4
$GPGSA,A,3,31,01,20,04,11,,,,,,,,2.6,1.4,2.2*36
$GPRMC,095123.000,A,4919.6818,N,01121.1599,E,0.17,138.02,190507,,*0E
$GPGGA,095124.000,4919.6821,N,01121.1599,E,1,05,1.4,470.8,M,47.7,M,,0000*57
$GPGSA,A,3,31,01,20,04,11,,,,,,,,2.6,1.4,2.2*36
$GPGSV,2,1,08,20,76,057,35,23,55,200,15,11,40,158,23,01,38,052,42*70
$GPGSV,2,2,08,17,36,266,24,31,27,063,35,13,24,211,18,04,15,308,26*72
$GPRMC,095124.000,A,4919.6821,N,01121.1599,E,0.68,8.93,190507,,*01
$GPGGA,095125.000,4919.6823,N,01121.1598,E,1,05,1.4,470.9,M,47.7,M,,00
$GPGSA,A,3,31,01,20,04,11,,,,,,,,2.6,1.4,2.2*36
$GPRMC,095125.000,A,4919.6823,N,01121.1598,E,0.11,112.83,190507,,*06
$GPGGA,095126.000,4919.6825,N,01121.1598,E,1,05,1.4,471.0,M,47.7,M,,0000*59
$GPGSA,A,3,31,01,20,04,11,,,,,,,,2.6,1.4,2.2*36
$GPRMC,095126.000,A,4919.6825,N,01121.1598,E,0.29,151.21,190507,,*07
$GPGGA,095127.000,4919.6825,N,01121.1598,E,1,05,1.4,471.1,M,47.7,M,,0000*59
$GPGSA,A,3,31,01,20,04,11,,,,,,,,2.6,1.4,2.2*36
$GPRMC,095127.000,A,4919.6825,N,01121.1598,E,0.26,152.41,190507,,*0C
$GPGGA,095128.000,4919.6823,N,01121.1598,E,1,05,1.4,470.8,M,47.7,M,,0000*58
$GPGSA,A,3,31,01,20,04,11,,,,,,,,2.6,1.4,2.2*36
$GPRMC,095128.000,A,4919.6823,N,01121.1598,E,0.81,168.75,190507,,*06
$GPGGA,095129.000,4919.6823,N,01121.1598,E,1,05,1.4,470.8,M,47.7,M,,0000*59
$GPGSA,A,3,31,01,20,04,11,,,,,,,,2.6,1.4,2.2*36
$GPGSV,2,1,08,20,76,057,35,23,55,200,14,11,40,158,23,01,38,052,42*71
$GPGSV,2,2,08,17,36,266,24,31,27,063,36,13,24,211,18,04,15,308,26*71
$GPRMC,095129.000,A,4919.6823,N,01121.1598,E,0.12,43.22,19050
$GPGGA,095130.000,4919.6827,N,01121.1597,E,1,05,1.4,471.2,M,47.7,M,,0000*51
$GPGSA,A,3,31,01,20,04,11,,,,,,,,2.6,1.4,2.2*36
$GPRMC,095130.000,A,4919.6827,N,01121.1597,E,0.09,97.41,190507,,*32
$GPGGA,095131.000,4919.6829,N,01121.1597,E,1,05,1.4,471.4,M,47.7,M,,0000*58
$GPGSA,A,3,31,01,20,04,11,,,,,,,,2.6,1.4,2.2*36
$GPRMC,095131.000,A,4919.6829,N,01121.1597,E,0.42,12.82,190507,,*30
$GPGGA,095132.000,4919.6829,N,01121.1596,E,1,05,1.4,471.3,M,47.7,M,,0000*5D
$GPGSA,A,3,31,01,20,04,11,,,,,,,,2.6,1.4,2.2*36
$GPRMC,095132.000,A,4919.6829,N,01121.1596,E,0.24,22.20,190507,,*39
$GPGGA,095133.000,4919.6830,N,01121.1596,E,1,05,1.4,471.3,M,47.7,M,,0000*54
$GPGSA,A,3,31,01,20,04,11,,,,,,,,2.6,1.4,2.2*36
$GPRMC,095133.000,A,4919.6830,N,01121.1596,E,0.15,51.89,190507,,*35
$GPGGA,095134.000,4919.6831,N,01121.1596,E,1,05,1.4,471.4,M,47.7,M,,0000*55
$GPGSA,A,3,31,01,20,04,11,,,,,,,,2.6,1.4,2.2*36
$GPGSV,2,1,08,20,76,057,35,23,55,200,15,11,40,158,23,01,38,052,42*70
$GPGSV,2,2,08,17,36,266,24,31,27,063,35,13,24,211,19,04,15,308,
$GPRMC,095134.000,A,4919.6831,N,01121.1596,E,0.07,89.05,190507,,*31
$GPGGA,095135.000,4919.6827,N,01121.1595,E,1,05,1.4,470.9,M,47.7,M,,0000*5C
$GPGSA,A,3,31,01,20,04,11,,,,,,,,2.6,1.4,2.2*36
$GPRMC,095135.000,A,4919.6827,N,01121.1595,E,0.84,171.34,190507,,*0B
$GPGGA,095136.000,4919.6827,N,01121.1595,E,1,05,1.4,470.9,M,47.7,M,,0000*5F
$GPGSA,A,3,31,01,20,04,11,,,,,,,,2.6,1.4,2.2*36
$GPRMC,095136.000,A,4919.6827,N,01121.1595,E,0.25,156.70,190507,,*06
$GPGGA,095137.000,4919.6828,N,01121.1595,E,1,05,1.4,471.0,M,47
$GPGSA,A,3,31,01,20,04,11,,,,,,,,2.6,1.4,2.2*36
$GPRMC,095137.000,A,4919.6828,N,01121.1595,E,0.28,156.04,190507,,*06
$GPGGA,095138.000,4919.6829,N,01121.1594,E,1,05,1.4,471.2,M,47.7,M,,0000*54
$GPGSA,A,3,31,01,20,04,11,,,,,,,,2.6,1.4,2.2*36
$GPRMC,095138.000,A,4919.6829,N,01121.1594,E,0.82,171.35,190507,,*0E
$GPGGA,095139.000,4919.6825,N,01121.1594,E,1,05,1.4,470.8,M,47.7,M,,0000*52
$GPGSA,A,3,31,01,20,04,11,,,,,,,,2.6,1.4,2.2*36
$GPGSV,2,1,08,20,76,057,35,23,55,200,20,11,40,158,23,01,38,052,42*76
$GPGSV,2,2,08,17,36,266,24,31,27,063,35,13,24,211,19,04,15,308,25*70
$GPRMC,095139.000,A,4919.6825,N,01121.1594,E,1.29,176.39,190507,,*08
$GPGGA,095140.000,4919.6826,N,01121.1594,E,1,05,1.4,471.0,M,47.7,M,,0000*56
$GPGSA,A,3,31,01,20,04,11,,,,,,,,2.6,1.4,2.2*36
$GPRMC,095140.000,A,4919.6826,N,01121.1594,E,0.42,164.61,190507,,*07
$GPGGA,095141.000,4919.6829,N,01121.1593,E,1,05,1.4,471.3,M,47.7,M,,0000*5C
$GPGSA,A,3,31,01,20,04,11,,,,,,,,2.6,1.4,2.2*36
$GPRMC,095141.000,A,4919.6829,N,01121.1593,E,0.77,171.29,1905
$GPGGA,095142.000,4919.6827,N,01121.1593,E,1,05,1.4,471.1,M,47.7,M,,0000*53
$GPGSA,A,3,31,01,20,04,11,,,,,,,,2.6,1.4,2.2*36
$GPRMC,095142.000,A,4919.6827,N,01121.1593,E,0.80,170.09,190507,,*06
$GPGGA,095143.000,4919.6826,N,01121.1592,E,1,05,1.4,471.0,M,47.7,M,,0000*53
$GPGSA,A,3,31,01,20,04,11,,,,,,,,2.6,1.4,2.2*36
$GPRMC,095143.000,A,4919.6826,N,01121.1592,E,0.99,175.55,190507,,*03
$GPGGA,095144.000,4919.6826,N,01121.1592,E,1,05,1.4,470.9,M,47.7,M,,0000*5C
$GPGSA,A,3,31,01,20,04,11,,,,,,,,2.6,1.4,2.2*36
$GPGSV,2,1,08,20,76,057,35,23,55,200,20,11,40,158,24,01,38,052,42*71
$GPGSV,2,2,08,17,36,266,23,31,27,063,35,13,24,211,19,04,15,308,25*77
$GPRMC,095144.000,A,4919.6826,N,01121.1592,E,1.55,173.71,190507,,*05
$GPGGA,095145.000,4919.6827,N,01121.1592,E,1,05,1.4,471.2,M,47.7,M,,0000*56
$GPGSA,A,3,31,01,20,04,11,,,,,,,,2.6,1.4,2.2*36
$GPRMC,095145.000,A,4919.6827,N,01121.1592,E,0.23,151.01,190507,,*02
$GPGGA,095146.000,4919.6830,N,01121.1591,E,1,05,1.4,471.3,M,47.7,M,,0000*51
$GPGSA,A,3,31,01,20,04,11,,,,,,,,2.6,1.4,2.2*36
$GPRMC,095146.000,A,4919.6830,N,01121.1591,E,0.20,35.62,190507,,*31
$GPGGA,095147.000,4919.6832,N,01121.1591,E,1,05,1.4,471.4,M,47.7,M,,0000*55
$GPGSA,A,3,31,01,20,04,11,,,,,,,,2.6,1.4,2.2*36
$GPRMC,095147.000,A,4919.6832,N,01121.1591,E,0.33,15.58,190507,,*3B
$GPGGA,095148.000,4919.6833,N,01121.1591,E,1,05,1.4,471.3,M,47.7,M,,0000*5C
$GPGSA,A,3,31,01,20,04,11,,,,,,,,2.6,1.4,2.2*36
$GPRMC,095148.000,A,4919.6833,N,01121.1591,E,0.28,23.48,190507,,*3B
$GPGGA,095149.000,4919.6834,N,01121.1591,E,1,05,1.4,471.3,M,47.7,M,,0000*5A
$GPGSA,A,3,31,01,20,04,11,,,,,,,,2.6,1.4,2.2*36
$GPGSV,2,1,08,20,76,057,35,23,55,200,21,11,39,158,24,01,38,052,42*7E
$GPGSV,2,2,08,17,35,265,23,31,27,063,34,13,24,211,19,04,15,308,25*76
$GPRMC,095149.000,A,4919.6834,N,01121.1591,E,0.45,14.36,190507,,*3B
$GPGGA,095150.000,4919.6832,N,01121.1591,E,1,05,1.4,470.9,M,47.7,M,,0000*5F
$GPGSA,A,3,31,01,20,04,11,,,,,,,,2.6,1.4,2.2*36
$GPRMC,095150.000,A,4919.6832,N,01121.1591,E,0.14,133.23,190507,,*01
$GPGGA,095151.000,4919.6830,N,01121.1591,E,1,05,1.4,470.6,M,47.7,M,,0000*53
$GPGSA,A,3,31,01,20,04,11,,,,,,,,2.6,1.4,2.2*36
$GPRMC,095151.000,A,4919.6830,N,01121.1591,E,0.18,141.64,190507,,*08
,177.82,250507,,*03
$GPVTG,177.82,T,,M,0.13,N,0.2,K*6B
$GPGGA,182306.000,4919.9926,N,01120.5250,E,1,09,0.9,458.1,M,47.7,M,,0000*5F
$GPGSA,A,3,29,05,12,18,26,22,28,09,17,,,,2.0,0.9,1.7*3A
$GPRMC,182306.000,A,4919.9926,N,01120.5250,E,0.08,235.98,250507,,*04
$GPVTG,235.98,T,,M,0.08,N,0.1,K*6C
$GPGGA,182307.000,4919.9926,N,01120.5250,E,1,09,0.9,457.9,M,47.7,M,,0000*59
$GPGSA,A,3,29,05,12,18,26,22,28,09,17,,,,2.0,0.9,1.7*3A
$GPRMC,182307.000,A,4919.9926,N,01120.5250,E,0.03,201.69,250507,,*07
$GPVTG,201.69,T,,M,0.03,N,0.1,K*6E
$GPGGA,182308.000,4919.9926,N,01120.5252,E,1,09,0.9,457.7,M,47.7,M,,0000*5A
$GPGSA,A,3,29,05,12,18,26,22,28,09,17,,,,2.0,0.9,1.7*3A
$GPRMC,182308.000,A,4919.9926,N,01120.5252,E,0.62,29.80,250507,,*32
$GPVTG,29.80,T,,M,0.62,N,1.2,K*54
$GPGGA,182309.000,4919.9926,N,01120.5252,E,1,09,0.9,458.0,M,47.7,M,,0000*53
$GPGSA,A,3,29,05,12,18,26,22,28,09,17,,,,2.0,0.9,1.7*3A
$GPRMC,182309.000,A,4919.9926,N,01120.5252,E,0.20,356.53,250507,,*00
$GPVTG,356.53,T,,M,0.20,N,0.4,K*60
$GPGGA,182310.000,4919.9926,N,01120.5252,E,1,09,0.9,457.4,M,47.7,M,,0000*50
$GPGSA,A,3,29,05,12,18,26,22,28,09,17,,,,2.0,0.9,1.7*3A
$GPRMC,182310.000,A,4919.9926,N,01120.5252,E,0.07,95.28,250507,,*3D
$GPVTG,95.28,T,,M,0.07,N,0.1,K*50
$GPGGA,182311.000,4919.9924,N,01120.5252,E,1,09,0.9,456.6,M,47.7,M,,0000*50
$GPGSA,A,3,29,05,12,18,26,22,28,09,17,,,,2.0,0.9,1.7*3A
$GPGSV,3,1,09,09,58,293,26,26,50,166,23,17,41,086,22,29,40,163,35*7B
$GPGSV,3,2,09,18,26,279,28,12,25,229,34,28,21,054,20,22,17,314,26*7E
$GPGSV,3,3,09,05,11,234,28*4A
$GPRMC,182311.000,A,4919.9924,N,01120.5252,E,0.49,212.28,250507,,*09
$GPVTG,212.28,T,,M,0.49,N,0.9,K*6F
$GPGGA,182312.000,4919.9923,N,01120.5249,E,1,09,0.9,456.4,M,47.7,M,,0000*5C
$GPGSA,A,3,29,05,12,18,26,22,28,09,17,,,,2.0,0.9,1.7*3A
$GPRMC,182312.000,A,4919.9923,N,01120.5249,E,0.07,91.05,250507,,*3B
$GPVTG,91.05,T,,M,0.07,N,0.1,K*5B
$GPGGA,182313.000,4919.9922,N,01120.5247,E,1,09,0.9,456.1,M,47.7,M,,0000*57
$GPGSA,A,3,29,05,12,18,26,22,28,09,17,,,,2.0,0.9,1.7*3A
$GPRMC,182313.000,A,4919.9922,N,01120.5247,E,0.57,247.59,250507,,*00
$GPVTG,247.59,T,,M,0.57,N,1.1,K*6F
$GPGGA,182314.000,4919.9921,N,01120.5247,E,1,09,0.9,455.7,M,47.7,M,,0000*56
$GPGSA,A,3,29,05,12,18,26,22,28,09,17,,,,2.0,0.9,1.7*3A
$GPRMC,182314.000,A,4919.9921,N,01120.5247,E,0.41,219.01,250507,,*05
$GPVTG,219.01,T,,M,0.41,N,0.8,K*66
$GPGGA,182315.000,4919.9920,N,01120.5249,E,1,09,0.9,455.0,M,47.7,M,,0000*5F
$GPGSA,A,3,29,05,12,18,26,22,28,09,17,,,,2.0,0.9,1.7*3A
$GPRMC,182315.000,A,4919.9920,N,01120.5249,E,0.27,28.25,250507,,*3D
$GPVTG,28.25,T,,M,0.27,N,0.5,K*5D
$GPGGA,182316.000,4919.9920,N,01120.5249,E,1,09,0.9,454.5,M,47.7,M,,0000*58
$GPGSA,A,3,29,05,12,18,26,22,28,09,17,,,,2.0,0.9,1.7*3A
$GPRMC,182316.000,A,4919.9920,N,01120.5249,E,0.34,219.41,250507,,*0E
$GPVTG,219.41,T,,M,0.34,N,0.6,K*6E
$GPGGA,182317.000,4919.9920,N,01120.5249,E,1,09,0.9,453.7,M,47.7,M,,0000*5C
$GPGSA,A,3,29,05,12,18,26,22,28,09,17,,,,2.0,0.9,1.7*3A
$GPRMC,182317.000,A,4919.9920,N,01120.5249,E,0.17,247.43,250507,,*07
$GPVTG,247.43,T,,M,0.17,N,0.3,K*63
$GPGGA,182318.000,4919.9919,N,01120.5249,E,1,09,0.9,453.1,M,47.7,M,,0000*5F
$GPGSA,A,3,29,05,12,18,26,22,28,09,17,,,,2.0,0.9,1.7*3A
$GPRMC,182318.000,A,4919.9919,N,01120.5249,E,0.16,69.40,250507,,*3E
$GPVTG,69.40,T,,M,0.16,N,0.3,K*5F
$GPGGA,182319.000,4919.9919,N,01120.5250,E,1,09,0.9,452.2,M,47.7,M,,0000*54
$GPGSA,A,3,29,05,12,18,26,22,28,09,17,,,,2.0,0.9,1.7*3A
$GPRMC,182319.000,A,4919.9919,N,01120.5250,E,0.15,217.52,250507,,*0C
$GPVTG,217.52,T,,M,0.15,N,0.3,K*64
$GPGGA,182320.000,4919.9918,N,01120.5250,E,1,09,0.9,451.6,M,47.7,M,,0000*58
$GPGSA,A,3,29,05,12,18,26,22,28,09,17,,,,2.0,0.9,1.7*3A
$GPRMC,182320.000,A,4919.9918,N,01120.5250,E,0.09,140.54,250507,,*0D
$GPVTG,140.54,T,,M,0.09,N,0.2,K*6F
$GPGGA,182321.000,4919.9917,N,01120.5250,E,1,09,0.9,450.9,M,47.7,M,,0000*58
$GPGSA,A,3,29,05,12,18,26,22,28,09,17,,,,2.0,0.9,1.7*3A
$GPGSV,3,1,09,09,58,293,26,26,50,166,25,17,41,086,22,29,40,163,35*7D
$GPGSV,3,2,09,18,26,279,29,12,25,229,34,28,21,054,22,22,17,314,25*7E
$GPGSV,3,3,09,05,11,234,28*4A
$GPRMC,182321.000,A,4919.9917,N,01120.5250,E,0.54,63.81,250507,,*33
$GPVTG,63.81,T,,M,0.54,N,1.0,K*5C
$GPGGA,182322.000,4919.9918,N,01120.5254,E,1,09,0.9,449.9,M,47.7,M,,0000*58
$GPGSA,A,3,29,05,12,18,26,22,28,09,17,,,,2.0,0.9,1.7*3A
$GPRMC,182322.000,A,4919.9918,N,01120.5254,E,0.39,65.23,250507,,*3E
$GPVTG,65.23,T,,M,0.39,N,0.7,K*5F
$GPGGA,182323.000,4919.9917,N,01120.5256,E,1,09,0.9,449.4,M,47.7,M,,0000*59
$GPGSA,A,3,29,05,12,18,26,22,28,09,17,,,,2.0,0.9,1.7*3A
$GPRMC,182323.000,A,4919.9917,N,01120.5256,E,0.24,73.38,250507,,*33
$GPVTG,73.38,T,,M,0.24,N,0.4,K*5D
$GPGGA,182324.000,4919.9916,N,01120.5256,E,1,09,0.9,449.0,M,47.7,M,,0000*5B
$GPGSA,A,3,29,05,12,18,26,22,28,09,17,,,,2.0,0.9,1.7*3A
$GPRMC,182324.000,A,4919.9916,N,01120.5256,E,0.12,237.22,250507,,*09
$GPVTG,237.22,T,,M,0.12,N,0.2,K*67
$GPGGA,182325.000,4919.9915,N,01120.5255,E,1,09,0.9,448.4,M,47.7,M,,0000*5F
$GPGSA,A,3,29,05,12,18,26,22,28,09,17,,,,2.0,0.9,1.7*3A
$GPRMC,182325.000,A,4919.9915,N,01120.5255,E,0.33,235.75,250507,,*0B
$GPVTG,235.75,T,,M,0.33,N,0.6,K*60
$GPGGA,182326.000,4919.9914,N,01120.5255,E,1,09,0.9,447.8,M,47.7,M,,0000*5E
$GPGSA,A,3,29,05,12,18,26,22,28,09,17,,,,2.0,0.9,1.7*3A
$GPRMC,182326.000,A,4919.9914,N,01120.5255,E,0.09,97.85,250507,,*35
$GPVTG,97.85,T,,M,0.09,N,0.2,K*58
$GPGGA,182327.000,4919.9913,N,01120.5256,E,1,09,0.9,447.3,M,47.7,M,,0000*50
$GPGSA,A,3,29,05,12,18,26,22,28,09,17,,,,2.0,0.9,1.7*3A
$GPRMC,182327.000,A,4919.9913,N,01120.5256,E,0.57,63.77,250507,,*3D
$GPVTG,63.77,T,,M,0.57,N,1.1,K*57
$GPGGA,182328.000,4919.9912,N,01120.5256,E,1,09,0.9,447.3,M,47.7,M,,0000*5E
$GPGSA,A,3,29,05,12,18,26,22,28,09,17,,,,2.0,0.9,1.7*3A
$GPRMC,182328.000,A,4919.9912,N,01120.5256,E,0.29,75.03,250507,,*3E
$GPVTG,75.03,T,,M,0.29,N,0.5,K*5F
$GPGGA,182329.000,4919.9912,N,01120.5253,E,1,09,0.9,447.9,M,47.7,M,,0000*50
$GPGSA,A,3,29,05,12,18,26,22,28,09,17,,,,2.0,0.9,1.7*3A
$GPRMC,182329.000,A,4919.9912,N,01120.5253,E,0.18,320.74,250507,,*0B
$GPVTG,320.74,T,,M,0.18,N,0.3,K*68
$GPGGA,182330.000,4919.9912,N,01120.5252,E,1,09,0.9,448.8,M,47.7,M,,0000*57
$GPGSA,A,3,29,05,12,18,26,22,28,09,17,,,,2.0,0.9,1.7*3A
$GPRMC,182330.000,A,4919.9912,N,01120.5252,E,0.33,53.49,250507,,*32
$GPVTG,53.49,T,,M,0.33,N,0.6,K*5D
$GPGGA,182331.000,4919.9912,N,01120.5251,E,1,09,0.9,449.8,M,47.7,M,,0000*54
$GPGSA,A,3,29,05,12,18,26,22,28,09,17,,,,2.0,0.9,1.7*3A
$GPGSV,3,1,09,09,58,293,19,26,50,166,23,17,41,086,21,29,40,163,34*75
$GPGSV,3,2,09,18,26,279,30,12,25,229,34,28,21,054,23,22,17,314,27*75
$GPGSV,3,3,09,05,11,234,28*4A
$GPRMC,182331.000,A,4919.9912,N,01120.5251,E,0.24,45.31,250507,,*3E
$GPVTG,45.31,T,,M,0.24,N,0.4,K*51
$GPGGA,182332.000,4919.9913,N,01120.5251,E,1,09,0.9,450.6,M,47.7,M,,0000*50
$GPGSA,A,3,29,05,12,18,26,22,28,09,17,,,,2.0,0.9,1.7*3A
$GPRMC,182332.000,A,4919.9913,N,01120.5251,E,0.69,56.91,250507,,*3D
$GPVTG,56.91,T,,M,0.69,N,1.3,K*56
$GPGGA,182333.000,4919.9913,N,01120.5250,E,1,09,0.9,451.7,M,47.7,M,,0000*50
$GPGSA,A,3,29,05,12,18,26,22,28,09,17,,,,2.0,0.9,1.7*3A
$GPRMC,182333.000,A,4919.9913,N,01120.5250,E,0.33,68.69,250507,,*38
$GPVTG,68.69,T,,M,0.33,N,0.6,K*57
$GPGGA,182334.000,4919.9914,N,01120.5247,E,1,09,0.9,453.8,M,47.7,M,,0000*5B
$GPGSA,A,3,29,05,12,18,26,22,28,09,17,,,,2.0,0.9,1.7*3A
$GPRMC,182334.000,A,4919.9914,N,01120.5247,E,0.27,48.98,250507,,*37
$GPVTG,48.98,T,,M,0.27,N,0.5,K*5D
$GPGGA,182335.000,4919.9915,N,01120.5247,E,1,09,0.9,455.0,M,47.7,M,,0000*55
$GPGSA,A,3,29,05,12,18,26,22,28,09,17,,,,2.0,0.9,1.7*3A
$GPRMC,182335.000,A,4919.9915,N,01120.5247,E,0.62,44.55,250507,,*3B
$GPVTG,44.55,T,,M,0.62,N,1.1,K*54
$GPGGA,182336.000,4919.9917,N,01120.5249,E,1,09,0.9,456.1,M,47.7,M,,0000*58
$GPGSA,A,3,29,05,12,18,26,22,28,09,17,,,,2.0,0.9,1.7*3A
$GPRMC,182336.000,A,4919.9917,N,01120.5249,E,0.45,36.94,250507,,*39
$GPVTG,36.94,T,,M,0.45,N,0.8,K*51
$GPGGA,182337.000,4919.9918,N,01120.5249,E,1,09,0.9,456.6,M,47.7,M,,0000*51
$GPGSA,A,3,29,05,12,18,26,22,28,09,17,,,,2.0,0.9,1.7*3A
$GPRMC,182337.000,A,4919.9918,N,01120.5249,E,0.41,278.83,250507,,*0D
$GPVTG,278.83,T,,M,0.41,N,0.8,K*6B
$GPGGA,182338.000,4919.9920,N,01120.5249,E,1,09,0.9,458.3,M,47.7,M,,0000*5E
$GPGSA,A,3,29,05,12,18,26,22,28,09,17,,,,2.0,0.9,1.7*3A
$GPRMC,182338.000,A,4919.9920,N,01120.5249,E,0.55,58.46,250507,,*35
$GPVTG,58.46,T,,M,0.55,N,1.0,K*5E
$GPGGA,182339.000,4919.9920,N,01120.5248,E,1,09,0.9,459.7,M,47.7,M,,0000*5B
$GPGSA,A,3,29,05,12,18,26,22,28,09,17,,,,2.0,0.9,1.7*3A
$GPRMC,182339.000,A,4919.9920,N,01120.5248,E,0.52,254.11,250507,,*0E
$GPVTG,254.11,T,,M,0.52,N,1.0,K*65
$GPGGA,182340.000,4919.9921,N,01120.5247,E,1,09,0.9,461.0,M,47.7,M,,0000*57
$GPGSA,A,3,29,05,12,18,26,22,28,09,17,,,,2.0,0.9,1.7*3A
$GPRMC,182340.000,A,4919.9921,N,01120.5247,E,0.30,282.68,250507,,*0F
$GPVTG,282.68,T,,M,0.30,N,0.6,K*63
$GPGGA,182341.000,4919.9923,N,01120.5246,E,1,09,0.9,462.6,M,47.7,M,,0000*50
$GPGSA,A,3,29,05,12,18,26,22,28,09,17,,,,2.0,0.9,1.7*3A
$GPGSV,3,1,09,09,58,293,18,26,50,166,21,17,41,086,19,29,40,163,34*7D
$GPGSV,3,2,09,18,26,279,30,12,25,229,34,28,20,054,24,22,17,314,27*73
$GPGSV,3,3,09,05,11,234,29*4B
$GPRMC,182341.000,A,4919.9923,N,01120.5246,E,0.42,305.29,250507,,*03
$GPVTG,305.29,T,,M,0.42,N,0.8,K*63
$GPGGA,182342.000,4919.9925,N,01120.5246,E,1,09,0.9,463.5,M,47.7,M,,0000*57
$GPGSA,A,3,29,05,12,18,26,22,28,09,17,,,,2.0,0.9,1.7*3A
$GPRMC,182342.000,A,4919.9925,N,01120.5246,E,0.58,274.62,250507,,*05
$GPVTG,274.62,T,,M,0.58,N,1.1,K*68
$GPGGA,182343.000,4919.9927,N,01120.5243,E,1,09,0.9,465.6,M,47.7,M,,0000*54
$GPGSA,A,3,29,05,12,18,26,22,28,09,17,,,,2.0,0.9,1.7*3A
$GPRMC,182343.000,A,4919.9927,N,01120.5243,E,0.62,8.02,250507,,*05
$GPVTG,8.02,T,,M,0.62,N,1.2,K*6D
$GPGGA,182344.000,4919.9928,N,01120.5241,E,1,08,1.1,466.7,M,47.7,M,,0000*54
$GPGSA,A,3,29,05,12,18,26,22,28,17,,,,,2.9,1.1,2.7*30
$GPRMC,182344.000,A,4919.9928,N,01120.5241,E,0.53,260.30,250507,,*00
$GPVTG,260.30,T,,M,0.53,N,1.0,K*60
$GPGGA,182345.000,4919.9928,N,01120.5239,E,1,08,1.1,467.5,M,47.7,M,,0000*59
$GPGSA,A,3,29,05,12,18,26,22,28,17,,,,,2.9,1.1,2.7*30
$GPRMC,182345.000,A,4919.9928,N,01120.5239,E,0.38,24.33,250507,,*32
$GPVTG,24.33,T,,M,0.38,N,0.7,K*5A
$GPGGA,182346.000,4919.9927,N,01120.5238,E,1,08,1.1,468.4,M,47.7,M,,0000*5A
$GPGSA,A,3,29,05,12,18,26,22,28,17,,,,,2.9,1.1,2.7*30
$GPRMC,182346.000,A,4919.9927,N,01120.5238,E,0.18,252.55,250507,,*0E
$GPVTG,252.55,T,,M,0.18,N,0.3,K*6F
$GPGGA,182347.000,4919.9927,N,01120.5237,E,1,08,1.1,468.7,M,47.7,M,,0000*57
$GPGSA,A,3,29,05,12,18,26,22,28,17,,,,,2.9,1.1,2.7*30
$GPRMC,182347.000,A,4919.9927,N,01120.5237,E,0.33,51.08,250507,,*30
$GPVTG,51.08,T,,M,0.33,N,0.6,K*5A
$GPGGA,182348.000,4919.9931,N,01120.5237,E,1,09,0.9,470.7,M,47.7,M,,0000*5E
$GPGSA,A,3,29,05,12,18,26,22,28,09,17,,,,2.0,0.9,1.7*3A
$GPRMC,182348.000,A,4919.9931,N,01120.5237,E,0.82,23.35,250507,,*39
$GPVTG,23.35,T,,M,0.82,N,1.5,K*59
$GPGGA,182349.000,4919.9933,N,01120.5236,E,1,09,0.9,471.8,M,47.7,M,,0000*52
$GPGSA,A,3,29,05,12,18,26,22,28,09,17,,,,2.0,0.9,1.7*3A
$GPRMC,182349.000,A,4919.9933,N,01120.5236,E,0.70,23.65,250507,,*33
$GPVTG,23.65,T,,M,0.70,N,1.3,K*57
$GPGGA,182350.000,4919.9934,N,01120.5235,E,1,09,0.9,472.6,M,47.7,M,,0000*53
$GPGSA,A,3,29,05,12,18,26,22,28,09,17,,,,2.0,0.9,1.7*3A
$GPRMC,182350.000,A,4919.9934,N,01120.5235,E,0.30,274.25,250507,,*0F
$GPVTG,274.25,T,,M,0.30,N,0.5,K*60
$GPGGA,182351.000,4919.9934,N,01120.5236,E,1,09,0.9,471.9,M,47.7,M,,0000*5D
$GPGSA,A,3,29,05,12,18,26,22,28,09,17,,,,2.0,0.9,1.7*3A
$GPGSV,3,1,09,09,58,293,18,26,49,166,23,17,41,086,19,29,40,163,34*77
$GPGSV,3,2,09,18,26,279,29,12,25,229,34,28,20,054,24,22,17,314,28*74
$GPGSV,3,3,09,05,11,234,29*4B
$GPRMC,182351.000,A,4919.9934,N,01120.5236,E,0.35,292.05,250507,,*02
$GPVTG,292.05,T,,M,0.35,N,0.6,K*6C
$GPGGA,182352.000,4919.9934,N,01120.5233,E,1,09,0.9,472.6,M,47.7,M,,0000*57
$GPGSA,A,3,29,05,12,18,26,22,28,09,17,,,,2.0,0.9,1.7*3A
$GPRMC,182352.000,A,4919.9934,N,01120.5233,E,0.86,257.85,250507,,*0D
$GPVTG,257.85,T,,M,0.86,N,1.6,K*64
$GPGGA,182353.000,4919.9933,N,01120.5232,E,1,09,0.9,472.2,M,47.7,M,,0000*54
$GPGSA,A,3,29,05,12,18,26,22,28,09,17,,,,2.0,0.9,1.7*3A
$GPRMC,182353.000,A,4919.9933,N,01120.5232,E,0.17,80.69,250507,,*38
$GPVTG,80.69,T,,M,0.17,N,0.3,K*52
$GPGGA,182354.000,4919.9932,N,01120.5236,E,1,09,0.9,471.5,M,47.7,M,,0000*52
$GPGSA,A,3,29,05,12,18,26,22,28,09,17,,,,2.0,0.9,1.7*3A
$GPRMC,182354.000,A,4919.9932,N,01120.5236,E,0.12,185.56,250507,,*07
$GPVTG,185.56,T,,M,0.12,N,0.2,K*6E
$GPGGA,182355.000,4919.9932,N,01120.5239,E,1,09,0.9,470.9,M,47.7,M,,0000*51
$GPGSA,A,3,29,05,12,18,26,22,28,09,17,,,,2.0,0.9,1.7*3A
$GPRMC,182355.000,A,4919.9932,N,01120.5239,E,0.30,1.57,250507,,*05
$GPVTG,1.57,T,,M,0.30,N,0.6,K*66
$GPGGA,182356.000,4919.9932,N,01120.5243,E,1,09,0.9,469.5,M,47.7,M,,0000*5B
$GPGSA,A,3,29,05,12,18,26,22,28,09,17,,,,2.0,0.9,1.7*3A
$GPRMC,182356.000,A,4919.9932,N,01120.5243,E,0.66,62.62,250507,,*3B
$GPVTG,62.62,T,,M,0.66,N,1.2,K*53
$GPGGA,182357.000,4919.9932,N,01120.5246,E,1,09,0.9,469.4,M,47.7,M,,0000*5E
$GPGSA,A,3,29,05,12,18,26,22,28,09,17,,,,2.0,0.9,1.7*3A
$GPRMC,182357.000,A,4919.9932,N,01120.5246,E,0.13,271.84,250507,,*05
$GPVTG,271.84,T,,M,0.13,N,0.2,K*68
$GPGGA,182358.000,4919.9932,N,01120.5247,E,1,09,0.9,468.7,M,47.7,M,,0000*52
$GPGSA,A,3,29,05,12,18,26,22,28,09,17,,,,2.0,0.9,1.7*3A
$GPRMC,182358.000,A,4919.9932,N,01120.5247,E,0.52,80.74,250507,,*3D
$GPVTG,80.74,T,,M,0.52,N,1.0,K*5D
$GPGGA,182359.000,4919.9931,N,01120.5250,E,1,09,0.9,467.5,M,47.7,M,,0000*5B
$GPGSA,A,3,29,05,12,18,26,22,28,09,17,,,,2.0,0.9,1.7*3A
$GPRMC,182359.000,A,4919.9931,N,01120.5250,E,0.46,42.47,250507,,*32
$GPVTG,42.47,T,,M,0.46,N,0.8,K*5F
$GPGGA,182400.000,4919.9931,N,01120.5250,E,1,09,0.9,466.6,M,47.7,M,,0000*52
$GPGSA,A,3,29,05,12,18,26,22,28,09,17,,,,2.0,0.9,1.7*3A
$GPRMC,182400.000,A,4919.9931,N,01120.5250,E,0.68,53.35,250507,,*30
$GPVTG,53.35,T,,M,0.68,N,1.3,K*5C
$GPGGA,182401.000,4919.9931,N,01120.5251,E,1,09,0.9,465.9,M,47.7,M,,0000*5E
$GPGSA,A,3,29,05,12,18,26,22,28,09,17,,,,2.0,0.9,1.7*3A
$GPGSV,3,1,09,09,58,293,20,26,49,166,25,17,41,086,20,29,40,163,33*77
$GPGSV,3,2,09,18,26,279,30,12,25,229,34,28,20,054,24,22,17,314,28*7C
$GPGSV,3,3,09,05,11,234,29*4B
$GPRMC,182401.000,A,4919.9931,N,01120.5251,E,0.51,18.94,250507,,*3E
$GPVTG,18.94,T,,M,0.51,N,1.0,K*51
$GPGGA,182402.000,4919.9930,N,01120.5251,E,1,09,0.9,465.2,M,47.7,M,,0000*57
$GPGSA,A,3,29,05,12,18,26,22,28,09,17,,,,2.0,0.9,1.7*3A
$GPRMC,182402.000,A,4919.9930,N,01120.5251,E,0.25,62.32,250507,,*3E
$GPVTG,62.32,T,,M,0.25,N,0.5,K*57
$GPGGA,182403.000,4919.9929,N,01120.5251,E,1,09,0.9,464.6,M,47.7,M,,0000*5B
$GPGSA,A,3,29,05,12,18,26,22,28,09,17,,,,2.0,0.9,1.7*3A
$GPRMC,182403.000,A,4919.9929,N,01120.5251,E,0.64,46.06,250507,,*33
$GPVTG,46.06,T,,M,0.64,N,1.2,K*55
$GPGGA,182404.000,4919.9928,N,01120.5250,E,1,09,0.9,464.4,M,47.7,M,,0000*5E
$GPGSA,A,3,29,05,12,18,26,22,28,09,17,,,,2.0,0.9,1.7*3A
$GPRMC,182404.000,A,4919.9928,N,01120.5250,E,0.35,212.84,250507,,*09
$GPVTG,212.84,T,,M,0.35,N,0.7,K*6C
$GPGGA,182405.000,4919.9925,N,01120.5249,E,1,09,0.9,464.0,M,47.7,M,,0000*5E
$GPGSA,A,3,29,05,12,18,26,22,28,09,17,,,,2.0,0.9,1.7*3A
$GPRMC,182405.000,A,4919.9925,N,01120.5249,E,0.06,175.56,250507,,*00
$GPVTG,175.56,T,,M,0.06,N,0.1,K*67
$GPGGA,182406.000,4919.9924,N,01120.5246,E,1,09,0.9,464.8,M,47.7,M,,0000*5B
$GPGSA,A,3,29,05,12,18,26,22,28,09,17,,,,2.0,0.9,1.7*3A
$GPRMC,182406.000,A,4919.9924,N,01120.5246,E,0.19,233.56,250507,,*02
$GPVTG,233.56,T,,M,0.19,N,0.3,K*6A
$GPGGA,182407.000,4919.9922,N,01120.5246,E,1,09,0.9,464.7,M,47.7,M,,0000*53
$GPGSA,A,3,29,05,12,18,26,22,28,09,17,,,,2.0,0.9,1.7*3A
$GPRMC,182407.000,A,4919.9922,N,01120.5246,E,0.15,186.75,250507,,*05
$GPVTG,186.75,T,,M,0.15,N,0.3,K*6A
$GPGGA,182408.000,4919.9921,N,01120.5249,E,1,09,0.9,464.7,M,47.7,M,,0000*50
$GPGSA,A,3,29,05,12,18,26,22,28,09,17,,,,2.0,0.9,1.7*3A
$GPRMC,182408.000,A,4919.9921,N,01120.5249,E,0.45,76.93,250507,,*35
$GPVTG,76.93,T,,M,0.45,N,0.8,K*52
$GPGGA,182409.000,4919.9921,N,01120.5249,E,1,09,0.9,465.4,M,47.7,M,,0000*53
$GPGSA,A,3,29,05,12,18,26,22,28,09,17,,,,2.0,0.9,1.7*3A
$GPRMC,182409.000,A,4919.9921,N,01120.5249,E,0.26,249.49,250507,,*08
$GPVTG,249.49,T,,M,0.26,N,0.5,K*63
$GPGGA,182410.000,4919.9921,N,01120.5249,E,1,09,0.9,465.9,M,47.7,M,,0000*56
$GPGSA,A,3,29,05,12,18,26,22,28,09,17,,,,2.0,0.9,1.7*3A
$GPRMC,182410.000,A,4919.9921,N,01120.5249,E,0.41,41.35,250507,,*30
$GPVTG,41.35,T,,M,0.41,N,0.8,K*5E
$GPGGA,182411.000,4919.9922,N,01120.5249,E,1,09,0.9,466.6,M,47.7,M,,0000*58
$GPGSA,A,3,29,05,12,18,26,22,28,09,17,,,,2.0,0.9,1.7*3A
$GPGSV,3,1,09,09,58,293,20,26,49,166,25,17,41,085,20,29,39,163,34*7D
$GPGSV,3,2,09,18,26,279,30,12,25,229,34,28,20,054,25,22,17,314,28*7D
$GPGSV,3,3,09,05,12,234,29*48
$GPRMC,182411.000,A,4919.9922,N,01120.5249,E,0.14,241.48,250507,,*0A
$GPVTG,241.48,T,,M,0.14,N,0.3,K*6D
$GPGGA,182412.000,4919.9921,N,01120.5251,E,1,09,0.9,466.2,M,47.7,M,,0000*55
$GPGSA,A,3,29,05,12,18,26,22,28,09,17,,,,2.0,0.9,1.7*3A
$GPRMC,182412.000,A,4919.9921,N,01120.5251,E,0.69,37.23,250507,,*37
$GPVTG,37.23,T,,M,0.69,N,1.3,K*58
$GPGGA,182413.000,4919.9922,N,01120.5252,E,1,09,0.9,466.4,M,47.7,M,,0000*52
$GPGSA,A,3,29,05,12,18,26,22,28,09,17,,,,2.0,0.9,1.7*3A
$GPRMC,182413.000,A,4919.9922,N,01120.5252,E,0.10,59.72,250507,,*34
$GPVTG,59.72,T,,M,0.10,N,0.2,K*5A
$GPGGA,182414.000,4919.9922,N,01120.5251,E,1,09,0.9,467.2,M,47.7,M,,0000*51
$GPGSA,A,3,29,05,12,18,26,22,28,09,17,,,,2.0,0.9,1.7*3A
$GPRMC,182414.000,A,4919.9922,N,01120.5251,E,0.03,225.07,250507,,*09
$GPVTG,225.07,T,,M,0.03,N,0.1,K*60
$GPGGA,182415.000,4919.9922,N,01120.5250,E,1,09,0.9,468.2,M,47.7,M,,0000*5E
$GPGSA,A,3,29,05,12,18,26,22,28,09,17,,,,2.0,0.9,1.7*3A
$GPRMC,182415.000,A,4919.9922,N,01120.5250,E,0.25,48.23,250507,,*32
$GPVTG,48.23,T,,M,0.25,N,0.5,K*5F
$GPGGA,182416.000,4919.9921,N,01120.5251,E,1,09,0.9,467.8,M,47.7,M,,0000*5A
$GPGSA,A,3,29,05,12,18,26,22,28,09,17,,,,2.0,0.9,1.7*3A
$GPRMC,182416.000,A,4919.9921,N,01120.5251,E,0.09,7.81,250507,,*0E
$GPVTG,7.81,T,,M,0.09,N,0.2,K*65
$GPGGA,182417.000,4919.9921,N,01120.5247,E,1,08,1.1,468.8,M,47.7,M,,0000*5B
$GPGSA,A,3,29,05,12,18,26,22,28,17,,,,,3.0,1.1,2.7*38
$GPRMC,182417.000,A,4919.9921,N,01120.5247,E,0.75,244.12,250507,,*0C
$GPVTG,244.12,T,,M,0.75,N,1.4,K*66
$GPGGA,182418.000,4919.9920,N,01120.5243,E,1,08,1.1,469.9,M,47.7,M,,0000*51
$GPGSA,A,3,29,05,12,18,26,22,28,17,,,,,3.0,1.1,2.7*38
$GPRMC,182418.000,A,4919.9920,N,01120.5243,E,0.14,275.48,250507,,*0C
$GPVTG,275.48,T,,M,0.14,N,0.3,K*6A
$GPGGA,182419.000,4919.9920,N,01120.5240,E,1,08,1.1,471.0,M,47.7,M,,0000*53
$GPGSA,A,3,29,05,12,18,26,22,28,17,,,,,3.0,1.1,2.8*37
$GPRMC,182419.000,A,4919.9920,N,01120.5240,E,0.28,290.07,250507,,*01
$GPVTG,290.07,T,,M,0.28,N,0.5,K*63
$GPGGA,182420.000,4919.9921,N,01120.5238,E,1,08,1.1,471.9,M,47.7,M,,0000*5E
$GPGSA,A,3,29,05,12,18,26,22,28,17,,,,,3.0,1.1,2.8*37
$GPRMC,182420.000,A,4919.9921,N,01120.5238,E,0.18,340.15,250507,,*09
$GPVTG,340.15,T,,M,0.18,N,0.3,K*69
$GPGGA,182421.000,4919.9920,N,01120.5234,E,1,08,1.1,472.8,M,47.7,M,,0000*50
$GPGSA,A,3,29,05,12,18,26,22,28,17,,,,,3.0,1.1,2.8*37
$GPGSV,3,1,09,09,58,293,18,26,49,166,26,17,41,085,21,29,39,163,34*74
$GPGSV,3,2,09,18,26,279,30,12,25,229,33,28,20,054,25,22,17,314,28*7A
$GPGSV,3,3,09,05,12,235,29*49
$GPRMC,182421.000,A,4919.9920,N,01120.5234,E,0.51,262.83,250507,,*06
$GPVTG,262.83,T,,M,0.51,N,0.9,K*60
$GPGGA,182422.000,4919.9920,N,01120.5230,E,1,08,1.1,473.8,M,47.7,M,,0000*56
$GPGSA,A,3,29,05,12,18,26,22,28,17,,,,,3.0,1.1,2.8*37
$GPRMC,182422.000,A,4919.9920,N,01120.5230,E,0.45,262.50,250507,,*0A
$GPVTG,262.50,T,,M,0.45,N,0.8,K*6A
$GPGGA,182423.000,4919.9919,N,01120.5225,E,1,08,1.1,474.9,M,47.7,M,,0000*5F
$GPGSA,A,3,29,05,12,18,26,22,28,17,,,,,3.0,1.1,2.8*37
$GPRMC,182423.000,A,4919.9919,N,01120.5225,E,0.87,248.25,250507,,*01
$GPVTG,248.25,T,,M,0.87,N,1.6,K*61
$GPGGA,182424.000,4919.9918,N,01120.5221,E,1,08,1.1,475.7,M,47.7,M,,0000*52
$GPGSA,A,3,29,05,12,18,26,22,28,17,,,,,3.0,1.1,2.8*37
$GPRMC,182424.000,A,4919.9918,N,01120.5221,E,0.60,257.47,250507,,*00
$GPVTG,257.47,T,,M,0.60,N,1.1,K*65
$GPGGA,182425.000,4919.9918,N,01120.5217,E,1,08,1.1,476.7,M,47.7,M,,0000*55
$GPGSA,A,3,29,05,12,18,26,22,28,17,,,,,3.0,1.1,2.8*37
$GPRMC,182425.000,A,4919.9918,N,01120.5217,E,0.63,260.02,250507,,*02
$GPVTG,260.02,T,,M,0.63,N,1.2,K*60
$GPGGA,182426.000,4919.9917,N,01120.5213,E,1,08,1.1,477.6,M,47.7,M,,0000*5D
$GPGSA,A,3,29,05,12,18,26,22,28,17,,,,,3.0,1.1,2.8*37
$GPRMC,182426.000,A,4919.9917,N,01120.5213,E,0.56,257.66,250507,,*0A
$GPVTG,257.66,T,,M,0.56,N,1.0,K*62
$GPGGA,182427.000,4919.9917,N,01120.5212,E,1,08,1.1,477.8,M,47.7,M,,0000*53
$GPGSA,A,3,29,05,12,18,26,22,28,17,,,,,3.0,1.1,2.8*37
$GPRMC,182427.000,A,4919.9917,N,01120.5212,E,0.16,322.00,250507,,*0D
$GPVTG,322.00,T,,M,0.16,N,0.3,K*67
$GPGGA,182428.000,4919.9917,N,01120.5211,E,1,08,1.1,478.4,M,47.7,M,,0000*5C
$GPGSA,A,3,29,05,12,18,26,22,28,17,,,,,3.0,1.1,2.8*37
$GPRMC,182428.000,A,4919.9917,N,01120.5211,E,0.23,28.58,250507,,*33
$GPVTG,28.58,T,,M,0.23,N,0.4,K*52
$GPGGA,182429.000,4919.9918,N,01120.5212,E,1,08,1.1,478.6,M,47.7,M,,0000*53
$GPGSA,A,3,29,05,12,18,26,22,28,17,,,,,3.0,1.1,2.8*37
$GPRMC,182429.000,A,4919.9918,N,01120.5212,E,0.58,41.35,250507,,*36
$GPVTG,41.35,T,,M,0.58,N,1.1,K*5E
$GPGGA,182430.000,4919.9919,N,01120.5212,E,1,08,1.1,478.6,M,47.7,M,,0000*5A
$GPGSA,A,3,29,05,12,18,26,22,28,17,,,,,3.0,1.1,2.8*37
$GPRMC,182430.000,A,4919.9919,N,01120.5212,E,0.16,33.75,250507,,*34
$GPVTG,33.75,T,,M,0.16,N,0.3,K*56
$GPGGA,182431.000,4919.9919,N,01120.5212,E,1,08,1.1,478.7,M,47.7,M,,0000*5A
$GPGSA,A,3,29,05,12,18,26,22,28,17,,,,,3.0,1.1,2.8*37
$GPGSV,3,1,09,09,58,293,18,26,49,166,27,17,41,085,23,29,39,163,34*77
$GPGSV,3,2,09,18,26,279,29,12,25,229,32,28,20,054,24,22,17,314,28*72
$GPGSV,3,3,09,05,12,235,29*49
$GPRMC,182431.000,A,4919.9919,N,01120.5212,E,0.35,247.37,250507,,*03
$GPVTG,247.37,T,,M,0.35,N,0.6,K*65
$GPGGA,182432.000,4919.9919,N,01120.5212,E,1,08,1.1,478.8,M,47.7,M,,0000*56
$GPGSA,A,3,29,05,12,18,26,22,28,17,,,,,3.0,1.1,2.8*37
$GPRMC,182432.000,A,4919.9919,N,01120.5212,E,0.25,253.55,250507,,*00
$GPVTG,253.55,T,,M,0.25,N,0.5,K*66
$GPGGA,182433.000,4919.9919,N,01120.5210,E,1,08,1.1,479.0,M,47.7,M,,0000*5C
$GPGSA,A,3,29,05,12,18,26,22,28,17,,,,,3.0,1.1,2.8*37
$GPRMC,182433.000,A,4919.9919,N,01120.5210,E,0.47,258.72,250507,,*09
$GPVTG,258.72,T,,M,0.47,N,0.9,K*60
$GPGGA,182434.000,4919.9920,N,01120.5209,E,1,08,1.1,479.6,M,47.7,M,,0000*5F
$GPGSA,A,3,29,05,12,18,26,22,28,17,,,,,3.0,1.1,2.8*37
$GPRMC,182434.000,A,4919.9920,N,01120.5209,E,0.17,338.42,250507,,*0D
$GPVTG,338.42,T,,M,0.17,N,0.3,K*6B
$GPGGA,182435.000,4919.9918,N,01120.5210,E,1,09,0.9,478.4,M,47.7,M,,0000*56
$GPGSA,A,3,29,05,12,18,26,22,28,09,17,,,,2.0,0.9,1.8*35
$GPRMC,182435.000,A,4919.9918,N,01120.5210,E,0.23,356.45,250507,,*07
$GPVTG,356.45,T,,M,0.23,N,0.4,K*64
$GPGGA,182436.000,4919.9916,N,01120.5212,E,1,09,0.9,476.7,M,47.7,M,,0000*54
$GPGSA,A,3,29,05,12,18,26,22,28,09,17,,,,2.0,0.9,1.8*35
$GPRMC,182436.000,A,4919.9916,N,01120.5212,E,0.10,5.58,250507,,*01
$GPVTG,5.58,T,,M,0.10,N,0.2,K*6B
$GPGGA,182437.000,4919.9917,N,01120.5215,E,1,09,0.9,475.9,M,47.7,M,,0000*5E
$GPGSA,A,3,29,05,12,18,26,22,28,09,17,,,,2.0,0.9,1.8*35
$GPRMC,182437.000,A,4919.9917,N,01120.5215,E,0.81,53.03,250507,,*33
$GPVTG,53.03,T,,M,0.81,N,1.5,K*58
$GPGGA,182438.000,4919.9917,N,01120.5220,E,1,09,0.9,474.6,M,47.7,M,,0000*59
$GPGSA,A,3,29,05,12,18,26,22,28,09,17,,,,2.0,0.9,1.8*35
$GPRMC,182438.000,A,4919.9917,N,01120.5220,E,0.16,13.38,250507,,*38
$GPVTG,13.38,T,,M,0.16,N,0.3,K*5D
$GPGGA,182439.000,4919.9916,N,01120.5220,E,1,09,0.9,474.3,M,47.7,M,,0000*5C
$GPGSA,A,3,29,05,12,18,26,22,28,09,17,,,,2.0,0.9,1.8*35
$GPRMC,182439.000,A,4919.9916,N,01120.5220,E,0.12,204.73,250507,,*07
$GPVTG,204.73,T,,M,0.12,N,0.2,K*63
$GPGGA,182440.000,4919.9916,N,01120.5220,E,1,09,0.9,474.0,M,47.7,M,,0000*51
$GPGSA,A,3,29,05,12,18,26,22,28,09,17,,,,2.0,0.9,1.8*35
$GPRMC,182440.000,A,4919.9916,N,01120.5220,E,0.34,240.99,250507,,*09
$GPVTG,240.99,T,,M,0.34,N,0.6,K*67
$GPGGA,182441.000,4919.9916,N,01120.5222,E,1,09,0.9,473.4,M,47.7,M,,0000*51
$GPGSA,A,3,29,05,12,18,26,22,28,09,17,,,,2.0,0.9,1.8*35
$GPGSV,3,1,09,09,58,293,21,26,49,166,27,17,41,085,24,29,39,163,34*7A
$GPGSV,3,2,09,18,26,279,29,12,25,229,32,28,20,054,24,22,17,314,28*72
$GPGSV,3,3,09,05,12,235,29*49
$GPRMC,182441.000,A,4919.9916,N,01120.5222,E,0.42,65.79,250507,,*30
$GPVTG,65.79,T,,M,0.42,N,0.8,K*53
$GPGGA,182442.000,4919.9917,N,01120.5226,E,1,09,0.9,472.5,M,47.7,M,,0000*57
$GPGSA,A,3,29,05,12,18,26,22,28,09,17,,,,2.0,0.9,1.8*35
$GPRMC,182442.000,A,4919.9917,N,01120.5226,E,0.64,58.37,250507,,*36
$GPVTG,58.37,T,,M,0.64,N,1.2,K*58
$GPGGA,182443.000,4919.9916,N,01120.5227,E,1,09,0.9,471.6,M,47.7,M,,0000*56
$GPGSA,A,3,29,05,12,18,26,22,28,09,17,,,,2.0,0.9,1.8*35
$GPRMC,182443.000,A,4919.9916,N,01120.5227,E,0.17,254.05,250507,,*0C
$GPVTG,254.05,T,,M,0.17,N,0.3,K*63
$GPGGA,182444.000,4919.9915,N,01120.5229,E,1,09,0.9,470.4,M,47.7,M,,0000*5F
$GPGSA,A,3,29,05,12,18,26,22,28,09,17,,,,2.0,0.9,1.8*35
$GPRMC,182444.000,A,4919.9915,N,01120.5229,E,0.37,88.96,250507,,*3D
$GPVTG,88.96,T,,M,0.37,N,0.7,K*5C
$GPGGA,182445.000,4919.9915,N,01120.5232,E,1,09,0.9,469.6,M,47.7,M,,0000*5E
$GPGSA,A,3,29,05,12,18,26,22,28,09,17,,,,2.0,0.9,1.8*35
$GPRMC,182445.000,A,4919.9915,N,01120.5232,E,0.51,75.75,250507,,*39
$GPVTG,75.75,T,,M,0.51,N,1.0,K*55
$GPGGA,182446.000,4919.9914,N,01120.5234,E,1,09,0.9,468.4,M,47.7,M,,0000*59
$GPGSA,A,3,29,05,12,18,26,22,28,09,17,,,,2.0,0.9,1.8*35
$GPRMC,182446.000,A,4919.9914,N,01120.5234,E,0.07,110.06,250507,,*08
$GPVTG,110.06,T,,M,0.07,N,0.1,K*60
$GPGGA,182447.000,4919.9914,N,01120.5234,E,1,09,0.9,468.1,M,47.7,M,,0000*5D
$GPGSA,A,3,29,05,12,18,26,22,28,09,17,,,,2.0,0.9,1.8*35
$GPRMC,182447.000,A,4919.9914,N,01120.5234,E,0.32,50.23,250507,,*3D
$GPVTG,50.23,T,,M,0.32,N,0.6,K*53
$GPGGA,182448.000,4919.9914,N,01120.5235,E,1,09,0.9,467.7,M,47.7,M,,0000*5A
$GPGSA,A,3,29,05,12,18,26,22,28,09,17,,,,2.0,0.9,1.8*35
$GPRMC,182448.000,A,4919.9914,N,01120.5235,E,0.36,90.70,250507,,*3D
$GPVTG,90.70,T,,M,0.36,N,0.7,K*5C
$GPGGA,182449.000,4919.9915,N,01120.5233,E,1,09,0.9,468.5,M,47.7,M,,0000*51
$GPGSA,A,3,29,05,12,18,26,22,28,09,17,,,,2.0,0.9,1.8*35
$GPRMC,182449.000,A,4919.9915,N,01120.5233,E,0.08,241.99,250507,,*0F
$GPVTG,241.99,T,,M,0.08,N,0.1,K*6E
$GPGGA,182450.000,4919.9915,N,01120.5232,E,1,09,0.9,468.9,M,47.7,M,,0000*54
$GPGSA,A,3,29,05,12,18,26,22,28,09,17,,,,2.0,0.9,1.8*35
$GPRMC,182450.000,A,4919.9915,N,01120.5232,E,0.58,61.98,250507,,*32
$GPVTG,61.98,T,,M,0.58,N,1.1,K*5B
$GPGGA,182451.000,4919.9916,N,01120.5231,E,1,09,0.9,469.5,M,47.7,M,,0000*58
$GPGSA,A,3,29,05,12,18,26,22,28,09,17,,,,2.0,0.9,1.8*35
$GPGSV,3,1,09,09,58,293,23,26,49,166,28,17,41,085,24,29,39,163,33*70
$GPGSV,3,2,09,18,25,278,30,12,25,229,31,28,20,054,23,22,17,313,28*7B
$GPGSV,3,3,09,05,12,235,29*49
$GPRMC,182451.000,A,4919.9916,N,01120.5231,E,0.04,88.75,250507,,*3E
$GPVTG,88.75,T,,M,0.04,N,0.1,K*57
$GPGGA,182452.000,4919.9915,N,01120.5228,E,1,09,0.9,469.7,M,47.7,M,,0000*52
$GPGSA,A,3,29,05,12,18,26,22,28,09,17,,,,2.0,0.9,1.8*35
$GPRMC,182452.000,A,4919.9915,N,01120.5228,E,0.46,236.64,250507,,*07
$GPVTG,236.64,T,,M,0.46,N,0.8,K*6F
$GPGGA,182453.000,4919.9914,N,01120.5226,E,1,09,0.9,469.6,M,47.7,M,,0000*5D
$GPGSA,A,3,29,05,12,18,26,22,28,09,17,,,,2.0,0.9,1.8*35
$GPRMC,182453.000,A,4919.9914,N,01120.5226,E,0.23,206.68,250507,,*05
$GPVTG,206.68,T,,M,0.23,N,0.4,K*6F
$GPGGA,182454.000,4919.9914,N,01120.5224,E,1,09,0.9,469.9,M,47.7,M,,0000*57
$GPGSA,A,3,29,05,12,18,26,22,28,09,17,,,,2.0,0.9,1.8*35
$GPRMC,182454.000,A,4919.9914,N,01120.5224,E,0.17,284.20,250507,,*01
$GPVTG,284.20,T,,M,0.17,N,0.3,K*69
$GPGGA,182455.000,4919.9913,N,01120.5221,E,1,09,0.9,470.4,M,47.7,M,,0000*51
$GPGSA,A,3,29,05,12,18,26,22,28,09,17,,,,2.0,0.9,1.8*35
$GPRMC,182455.000,A,4919.9913,N,01120.5221,E,0.07,150.14,250507,,*0E
$GPVTG,150.14,T,,M,0.07,N,0.1,K*67
$GPGGA,182456.000,4919.9912,N,01120.5220,E,1,09,0.9,470.2,M,47.7,M,,0000*54
$GPGSA,A,3,29,05,12,18,26,22,28,09,17,,,,2.0,0.9,1.8*35
$GPRMC,182456.000,A,4919.9912,N,01120.5220,E,0.19,185.62,250507,,*0B
$GPVTG,185.62,T,,M,0.19,N,0.3,K*63
$GPGGA,182457.000,4919.9911,N,01120.5220,E,1,09,0.9,469.9,M,47.7,M,,0000*55
$GPGSA,A,3,29,05,12,18,26,22,28,09,17,,,,2.0,0.9,1.8*35
$GPRMC,182457.000,A,4919.9911,N,01120.5220,E,0.39,76.45,250507,,*33
$GPVTG,76.45,T,,M,0.39,N,0.7,K*5D
$GPGGA,182458.000,4919.9911,N,01120.5220,E,1,09,0.9,470.1,M,47.7,M,,0000*5A
$GPGSA,A,3,29,05,12,18,26,22,28,09,17,,,,2.0,0.9,1.8*35
$GPRMC,182458.000,A,4919.9911,N,01120.5220,E,0.31,21.19,250507,,*3F
$GPVTG,21.19,T,,M,0.31,N,0.6,K*5F
$GPGGA,182459.000,4919.9910,N,01120.5218,E,1,09,0.9,470.2,M,47.7,M,,0000*52
$GPGSA,A,3,29,05,12,18,26,22,28,09,17,,,,2.0,0.9,1.8*35
$GPRMC,182459.000,A,4919.9910,N,01120.5218,E,0.24,238.41,250507,,*07
$GPVTG,238.41,T,,M,0.24,N,0.4,K*6E
$GPGGA,182500.000,4919.9911,N,01120.5216,E,1,09,0.9,470.6,M,47.7,M,,0000*54
$GPGSA,A,3,29,05,12,18,26,22,28,09,17,,,,2.0,0.9,1.8*35
$GPRMC,182500.000,A,4919.9911,N,01120.5216,E,0.18,18.14,250507,,*3A
$GPVTG,18.14,T,,M,0.18,N,0.3,K*56
$GPGGA,182501.000,4919.9911,N,01120.5217,E,1,09,0.9,470.7,M,47.7,M,,0000*55
$GPGSA,A,3,29,05,12,18,26,22,28,09,17,,,,2.0,0.9,1.8*35
$GPGSV,3,1,09,09,58,293,24,26,49,166,29,17,41,085,23,29,39,163,33*71
$GPGSV,3,2,09,18,25,278,30,12,25,229,31,28,20,054,24,22,17,313,27*73
$GPGSV,3,3,09,05,12,235,28*48
$GPRMC,182501.000,A,4919.9911,N,01120.5217,E,0.50,46.29,250507,,*33
$GPVTG,46.29,T,,M,0.50,N,0.9,K*55
$GPGGA,182502.000,4919.9911,N,01120.5219,E,1,09,0.9,470.3,M,47.7,M,,0000*5C
$GPGSA,A,3,29,05,12,18,26,22,28,09,17,,,,2.0,0.9,1.8*35
$GPRMC,182502.000,A,4919.9911,N,01120.5219,E,0.33,50.54,250507,,*36
$GPVTG,50.54,T,,M,0.33,N,0.6,K*52
$GPGGA,182503.000,4919.9913,N,01120.5223,E,1,09,0.9,470.1,M,47.7,M,,0000*54
$GPGSA,A,3,29,05,12,18,26,22,28,09,17,,,,2.0,0.9,1.8*35
$GPRMC,182503.000,A,4919.9913,N,01120.5223,E,0.92,44.59,250507,,*3F
$GPVTG,44.59,T,,M,0.92,N,1.7,K*51
$GPGGA,182504.000,4919.9914,N,01120.5227,E,1,09,0.9,469.5,M,47.7,M,,0000*5C
$GPGSA,A,3,29,05,12,18,26,22,28,09,17,,,,2.0,0.9,1.8*35
$GPRMC,182504.000,A,4919.9914,N,01120.5227,E,0.18,68.84,250507,,*37
$GPVTG,68.84,T,,M,0.18,N,0.3,K*58
$GPGGA,182505.000,4919.9914,N,01120.5230,E,1,09,0.9,468.3,M,47.7,M,,0000*5C
$GPGSA,A,3,29,05,12,18,26,22,28,09,17,,,,2.0,0.9,1.8*35
$GPRMC,182505.000,A,4919.9914,N,01120.5230,E,0.48,230.24,250507,,*00
$GPVTG,230.24,T,,M,0.48,N,0.9,K*62
$GPGGA,182506.000,4919.9914,N,01120.5234,E,1,09,0.9,467.0,M,47.7,M,,0000*57
$GPGSA,A,3,29,05,12,18,26,22,28,09,17,,,,2.0,0.9,1.8*35
$GPRMC,182506.000,A,4919.9914,N,01120.5234,E,0.49,56.88,250507,,*32
$GPVTG,56.88,T,,M,0.49,N,0.9,K*57
$GPGGA,182507.000,4919.9914,N,01120.5240,E,1,09,0.9,465.6,M,47.7,M,,0000*51
$GPGSA,A,3,29,05,12,18,26,22,28,09,17,,,,2.0,0.9,1.8*35
$GPRMC,182507.000,A,4919.9914,N,01120.5240,E,0.30,69.92,250507,,*39
$GPVTG,69.92,T,,M,0.30,N,0.6,K*51
$GPGGA,182508.000,4919.9914,N,01120.5243,E,1,09,0.9,464.6,M,47.7,M,,0000*5C
$GPGSA,A,3,29,05,12,18,26,22,28,09,17,,,,2.0,0.9,1.8*35
$GPRMC,182508.000,A,4919.9914,N,01120.5243,E,0.26,231.52,250507,,*01
$GPVTG,231.52,T,,M,0.26,N,0.5,K*66
$GPGGA,182509.000,4919.9914,N,01120.5245,E,1,09,0.9,463.7,M,47.7,M,,0000*5D
$GPGSA,A,3,29,05,12,18,26,22,28,09,17,,,,2.0,0.9,1.8*35
$GPRMC,182509.000,A,4919.9914,N,01120.5245,E,0.12,96.05,250507,,*3C
$GPVTG,96.05,T,,M,0.12,N,0.2,K*5B
$GPGGA,182510.000,4919.9913,N,01120.5246,E,1,09,0.9,463.3,M,47.7,M,,0000*55
$GPGSA,A,3,29,05,12,18,26,22,28,09,17,,,,2.0,0.9,1.8*35
$GPRMC,182510.000,A,4919.9913,N,01120.5246,E,0.41,217.45,250507,,*09
$GPVTG,217.45,T,,M,0.41,N,0.8,K*68
$GPGGA,182511.000,4919.9912,N,01120.5245,E,1,09,0.9,462.8,M,47.7,M,,0000*5C
$GPGSA,A,3,29,05,12,18,26,22,28,09,17,,,,2.0,0.9,1.8*35
$GPGSV,3,1,09,09,58,293,27,26,49,166,30,17,41,085,22,29,39,163,33*7B
$GPGSV,3,2,09,18,25,278,31,12,25,229,32,28,20,054,24,22,17,313,27*71
$GPGSV,3,3,09,05,12,235,27*47
$GPRMC,182511.000,A,4919.9912,N,01120.5245,E,0.13,131.02,250507,,*09
$GPVTG,131.02,T,,M,0.13,N,0.2,K*61
$GPGGA,182512.000,4919.9912,N,01120.5247,E,1,09,0.9,462.4,M,47.7,M,,0000*51
$GPGSA,A,3,29,05,12,18,26,22,28,09,17,,,,2.0,0.9,1.8*35
$GPRMC,182512.000,A,4919.9912,N,01120.5247,E,0.26,65.50,250507,,*39
$GPVTG,65.50,T,,M,0.26,N,0.5,K*57
$GPGGA,182513.000,4919.9913,N,01120.5249,E,1,09,0.9,461.7,M,47.7,M,,0000*5F
$GPGSA,A,3,29,05,12,18,26,22,28,09,17,,,,2.0,0.9,1.8*35
$GPRMC,182513.000,A,4919.9913,N,01120.5249,E,0.38,57.10,250507,,*3D
$GPVTG,57.10,T,,M,0.38,N,0.7,K*5F
$GPGGA,182514.000,4919.9913,N,01120.5249,E,1,09,0.9,461.6,M,47.7,M,,0000*59
$GPGSA,A,3,29,05,12,18,26,22,28,09,17,,,,2.0,0.9,1.8*35
$GPRMC,182514.000,A,4919.9913,N,01120.5249,E,0.38,230.61,250507,,*0F
$GPVTG,230.61,T,,M,0.38,N,0.7,K*6A
$GPGGA,182515.000,4919.9913,N,01120.5250,E,1,09,0.9,461.1,M,47.7,M,,0000*57
$GPGSA,A,3,29,05,12,18,26,22,28,09,17,,,,2.0,0.9,1.8*35
$GPRMC,182515.000,A,4919.9913,N,01120.5250,E,0.24,70.77,250507,,*3A
$GPVTG,70.77,T,,M,0.24,N,0.4,K*55
$GPGGA,182516.000,4919.9914,N,01120.5252,E,1,09,0.9,460.6,M,47.7,M,,0000*57
$GPGSA,A,3,29,05,12,18,26,22,28,09,17,,,,2.0,0.9,1.8*35
$GPRMC,182516.000,A,4919.9914,N,01120.5252,E,0.44,65.73,250507,,*3A
$GPVTG,65.73,T,,M,0.44,N,0.8,K*5F
$GPGGA,182517.000,4919.9914,N,01120.5254,E,1,09,0.9,460.2,M,47.7,M,,0000*54
$GPGSA,A,3,29,05,12,18,26,22,28,09,17,,,,2.0,0.9,1.8*35
$GPRMC,182517.000,A,4919.9914,N,01120.5254,E,0.05,105.92,250507,,*00
$GPVTG,105.92,T,,M,0.05,N,0.1,K*6B
$GPGGA,182518.000,4919.9914,N,01120.5252,E,1,09,0.9,460.1,M,47.7,M,,0000*5E
$GPGSA,A,3,29,05,12,18,26,22,28,09,17,,,,2.0,0.9,1.8*35
$GPRMC,182518.000,A,4919.9914,N,01120.5252,E,0.31,241.47,250507,,*05
$GPVTG,241.47,T,,M,0.31,N,0.6,K*60
$GPGGA,182519.000,4919.9914,N,01120.5253,E,1,09,0.9,459.9,M,47.7,M,,0000*5C
$GPGSA,A,3,29,05,12,18,26,22,28,09,17,,,,2.0,0.9,1.8*35
$GPRMC,182519.000,A,4919.9914,N,01120.5253,E,0.12,74.50,250507,,*36
$GPVTG,74.50,T,,M,0.12,N,0.2,K*57
$GPGGA,182520.000,4919.9913,N,01120.5251,E,1,09,0.9,459.6,M,47.7,M,,0000*5C
$GPGSA,A,3,29,05,12,18,26,22,28,09,17,,,,2.0,0.9,1.8*35
$GPRMC,182520.000,A,4919.9913,N,01120.5251,E,0.15,238.51,250507,,*05
$GPVTG,238.51,T,,M,0.15,N,0.3,K*6A
$GPGGA,182521.000,4919.9913,N,01120.5251,E,1,09,0.9,459.1,M,47.7,M,,0000*5A
$GPGSA,A,3,29,05,12,18,26,22,28,09,17,,,,2.0,0.9,1.8*35
$GPGSV,3,1,09,09,59,293,29,26,49,166,30,17,41,085,23,29,39,163,33*75
$GPGSV,3,2,09,12,26,229,32,18,25,278,30,28,20,054,24,22,17,313,27*73
$GPGSV,3,3,09,05,12,235,25*45
$GPRMC,182521.000,A,4919.9913,N,01120.5251,E,0.43,50.73,250507,,*3B
$GPVTG,50.73,T,,M,0.43,N,0.8,K*5E
$GPGGA,182522.000,4919.9913,N,01120.5252,E,1,09,0.9,458.7,M,47.7,M,,0000*5D
$GPGSA,A,3,29,05,12,18,26,22,28,09,17,,,,2.0,0.9,1.8*35
$GPRMC,182522.000,A,4919.9913,N,01120.5252,E,0.32,56.46,250507,,*3D
$GPVTG,56.46,T,,M,0.32,N,0.6,K*56
$GPGGA,182523.000,4919.9913,N,01120.5252,E,1,09,0.9,458.4,M,47.7,M,,0000*5F
$GPGSA,A,3,29,05,12,18,26,22,28,09,17,,,,2.0,0.9,1.8*35
$GPRMC,182523.000,A,4919.9913,N,01120.5252,E,0.34,58.18,250507,,*3F
$GPVTG,58.18,T,,M,0.34,N,0.6,K*55
$GPGGA,182524.000,4919.9913,N,01120.5252,E,1,09,0.9,458.2,M,47.7,M,,0000*5E
$GPGSA,A,3,29,05,12,18,26,22,28,09,17,,,,2.0,0.9,1.8*35
$GPRMC,182524.000,A,4919.9913,N,01120.5252,E,0.28,208.85,250507,,*06
$GPVTG,208.85,T,,M,0.28,N,0.5,K*68
$GPGGA,182525.000,4919.9912,N,01120.5250,E,1,09,0.9,458.0,M,47.7,M,,0000*5E
$GPGSA,A,3,29,05,12,18,26,22,28,09,17,,,,2.0,0.9,1.8*35
$GPRMC,182525.000,A,4919.9912,N,01120.5250,E,0.40,233.71,250507,,*09
$GPVTG,233.71,T,,M,0.40,N,0.7,K*67
$GPGGA,182526.000,4919.9911,N,01120.5250,E,1,09,0.9,457.6,M,47.7,M,,0000*57
$GPGSA,A,3,29,05,12,18,26,22,28,09,17,,,,2.0,0.9,1.8*35
$GPRMC,182526.000,A,4919.9911,N,01120.5250,E,0.30,50.35,250507,,*39
$GPVTG,50.35,T,,M,0.30,N,0.6,K*56
$GPGGA,182527.000,4919.9911,N,01120.5250,E,1,09,0.9,457.2,M,47.7,M,,0000*52
$GPGSA,A,3,29,05,12,18,26,22,28,09,17,,,,2.0,0.9,1.8*35
$GPRMC,182527.000,A,4919.9911,N,01120.5250,E,0.15,41.36,250507,,*3C
$GPVTG,41.36,T,,M,0.15,N,0.3,K*57
$GPGGA,182528.000,4919.9910,N,01120.5248,E,1,09,0.9,457.0,M,47.7,M,,0000*57
$GPGSA,A,3,29,05,12,18,26,22,28,09,17,,,,2.0,0.9,1.8*35
$GPRMC,182528.000,A,4919.9910,N,01120.5248,E,0.13,224.11,250507,,*09
$GPVTG,224.11,T,,M,0.13,N,0.2,K*64
$GPGGA,182529.000,4919.9909,N,01120.5246,E,1,09,0.9,456.8,M,47.7,M,,0000*59
$GPGSA,A,3,29,05,12,18,26,22,28,09,17,,,,2.0,0.9,1.8*35
$GPRMC,182529.000,A,4919.9909,N,01120.5246,E,0.65,222.93,250507,,*03
$GPVTG,222.93,T,,M,0.65,N,1.2,K*68
$GPGGA,182530.000,4919.9908,N,01120.5245,E,1,09,0.9,456.7,M,47.7,M,,0000*5C
$GPGSA,A,3,29,05,12,18,26,22,28,09,17,,,,2.0,0.9,1.8*35
$GPRMC,182530.000,A,4919.9908,N,01120.5245,E,0.13,241.73,250507,,*03
$GPVTG,241.73,T,,M,0.13,N,0.2,K*63
$GPGGA,182531.000,4919.9907,N,01120.5243,E,1,09,0.9,456.6,M,47.7,M,,0000*55
$GPGSA,A,3,29,05,12,18,26,22,28,09,17,,,,2.0,0.9,1.8*35
$GPGSV,3,1,09,09,59,293,31,26,49,166,30,17,41,085,24,29,39,163,34*7C
$GPGSV,3,2,09,12,26,229,32,18,25,278,30,28,20,054,24,22,17,313,27*73
$GPGSV,3,3,09,05,12,235,24*44
$GPRMC,182531.000,A,4919.9907,N,01120.5243,E,0.64,231.16,250507,,*0F
$GPVTG,231.16,T,,M,0.64,N,1.2,K*66
$GPGGA,182532.000,4919.9907,N,01120.5243,E,1,09,0.9,456.4,M,47.7,M,,0000*54
$GPGSA,A,3,29,05,12,18,26,22,28,09,17,,,,2.0,0.9,1.8*35
$GPRMC,182532.000,A,4919.9907,N,01120.5243,E,0.32,39.64,250507,,*30
$GPVTG,39.64,T,,M,0.32,N,0.6,K*5F
$GPGGA,182533.000,4919.9906,N,01120.5241,E,1,09,0.9,456.5,M,47.7,M,,0000*57
$GPGSA,A,3,29,05,12,18,26,22,28,09,17,,,,2.0,0.9,1.8*35
$GPRMC,182533.000,A,4919.9906,N,01120.5241,E,0.40,223.89,250507,,*0D
$GPVTG,223.89,T,,M,0.40,N,0.7,K*61
$GPGGA,182534.000,4919.9906,N,01120.5241,E,1,09,0.9,456.3,M,47.7,M,,0000*56
$GPGSA,A,3,29,05,12,18,26,22,28,09,17,,,,2.0,0.9,1.8*35
$GPRMC,182534.000,A,4919.9906,N,01120.5241,E,0.10,146.96,250507,,*01
$GPVTG,146.96,T,,M,0.10,N,0.2,K*6F
$GPGGA,182535.000,4919.9906,N,01120.5242,E,1,09,0.9,456.3,M,47.7,M,,0000*54
$GPGSA,A,3,29,05,12,18,26,22,28,09,17,,,,2.0,0.9,1.8*35
$GPRMC,182535.000,A,4919.9906,N,01120.5242,E,0.19,203.67,250507,,*06
$GPVTG,203.67,T,,M,0.19,N,0.3,K*6B
$GPGGA,182536.000,4919.9905,N,01120.5241,E,1,09,0.9,456.1,M,47.7,M,,0000*55
$GPGSA,A,3,29,05,12,18,26,22,28,09,17,,,,2.0,0.9,1.8*35
$GPRMC,182536.000,A,4919.9905,N,01120.5241,E,0.26,210.20,250507,,*08
$GPVTG,210.20,T,,M,0.26,N,0.5,K*60
$GPGGA,182537.000,4919.9905,N,01120.5241,E,1,09,0.9,455.9,M,47.7,M,,0000*5F
$GPGSA,A,3,29,05,12,18,26,22,28,09,17,,,,2.0,0.9,1.8*35
$GPRMC,182537.000,A,4919.9905,N,01120.5241,E,0.14,41.55,250507,,*3C
$GPVTG,41.55,T,,M,0.14,N,0.3,K*53
$GPGGA,182538.000,4919.9906,N,01120.5242,E,1,09,0.9,455.8,M,47.7,M,,0000*51
$GPGSA,A,3,29,05,12,18,26,22,28,09,17,,,,2.0,0.9,1.8*35
$GPRMC,182538.000,A,4919.9906,N,01120.5242,E,0.17,216.56,250507,,*03
$GPVTG,216.56,T,,M,0.17,N,0.3,K*63
$GPGGA,182539.000,4919.9905,N,01120.5240,E,1,09,0.9,455.7,M,47.7,M,,0000*5E
$GPGSA,A,3,29,05,12,18,26,22,28,09,17,,,,2.0,0.9,1.8*35
$GPRMC,182539.000,A,4919.9905,N,01120.5240,E,0.82,237.26,250507,,*0B
$GPVTG,237.26,T,,M,0.82,N,1.5,K*6C
$GPGGA,182540.000,4919.9905,N,01120.5240,E,1,09,0.9,455.4,M,47.7,M,,0000*53
$GPGSA,A,3,29,05,12,18,26,22,28,09,17,,,,2.0,0.9,1.8*35
$GPRMC,182540.000,A,4919.9905,N,01120.5240,E,0.42,228.76,250507,,*02
$GPVTG,228.76,T,,M,0.42,N,0.8,K*67
$GPGGA,182541.000,4919.9905,N,01120.5240,E,1,09,0.9,455.2,M,47.7,M,,0000*54
$GPGSA,A,3,29,05,12,18,26,22,28,09,17,,,,2.0,0.9,1.8*35
$GPGSV,3,1,09,09,59,293,31,26,49,166,30,17,41,085,24,29,39,163,34*7C
$GPGSV,3,2,09,12,26,229,32,18,25,278,30,28,20,054,24,22,17,313,27*73
$GPGSV,3,3,09,05,12,235,23*43
$GPRMC,182541.000,A,4919.9905,N,01120.5240,E,0.83,225.71,250507,,*04
$GPVTG,225.71,T,,M,0.83,N,1.5,K*6C
$GPGGA,182542.000,4919.9905,N,01120.5242,E,1,09,0.9,454.8,M,47.7,M,,0000*5E
$GPGSA,A,3,29,05,12,18,26,22,28,09,17,,,,2.0,0.9,1.8*35
$GPRMC,182542.000,A,4919.9905,N,01120.5242,E,0.27,219.68,250507,,*0C
$GPVTG,219.68,T,,M,0.27,N,0.5,K*64
$GPGGA,182543.000,4919.9905,N,01120.5243,E,1,09,0.9,454.6,M,47.7,M,,0000*50
$GPGSA,A,3,29,05,12,18,26,22,28,09,17,,,,2.0,0.9,1.8*35
$GPRMC,182543.000,A,4919.9905,N,01120.5243,E,0.15,54.72,250507,,*3D
$GPVTG,54.72,T,,M,0.15,N,0.3,K*53
$GPGGA,182544.000,4919.9906,N,01120.5244,E,1,09,0.9,454.4,M,47.7,M,,0000*51
$GPGSA,A,3,29,05,12,18,26,22,28,09,17,,,,2.0,0.9,1.8*35
$GPRMC,182544.000,A,4919.9906,N,01120.5244,E,0.20,52.63,250507,,*3E
$GPVTG,52.63,T,,M,0.20,N,0.4,K*54
$GPGGA,182545.000,4919.9906,N,01120.5244,E,1,09,0.9,454.6,M,47.7,M,,0000*52
$GPGSA,A,3,29,05,12,18,26,22,28,09,17,,,,2.0,0.9,1.8*35
$GPRMC,182545.000,A,4919.9906,N,01120.5244,E,0.25,239.92,250507,,*0B
$GPVTG,239.92,T,,M,0.25,N,0.5,K*61
$GPGGA,182546.000,4919.9907,N,01120.5244,E,1,09,0.9,454.7,M,47.7,M,,0000*51
$GPGSA,A,3,29,05,12,18,26,22,28,09,17,,,,2.0,0.9,1.8*35
$GPRMC,182546.000,A,4919.9907,N,01120.5244,E,0.05,107.74,250507,,*0D
$GPVTG,107.74,T,,M,0.05,N,0.1,K*61
$GPGGA,182547.000,4919.9907,N,01120.5245,E,1,09,0.9,454.8,M,47.7,M,,0000*5E
$GPGSA,A,3,29,05,12,18,26,22,28,09,17,,,,2.0,0.9,1.8*35
$GPRMC,182547.000,A,4919.9907,N,01120.5245,E,0.11,351.62,250507,,*0E
$GPVTG,351.62,T,,M,0.11,N,0.2,K*61
$GPGGA,182548.000,4919.9907,N,01120.5244,E,1,09,0.9,454.7,M,47.7,M,,0000*5F
$GPGSA,A,3,29,05,12,18,26,22,28,09,17,,,,2.0,0.9,1.8*35
$GPRMC,182548.000,A,4919.9907,N,01120.5244,E,0.09,64.99,250507,,*38
$GPVTG,64.99,T,,M,0.09,N,0.2,K*59
$GPGGA,182549.000,4919.9907,N,01120.5243,E,1,09,0.9,454.7,M,47.7,M,,0000*59
$GPGSA,A,3,29,05,12,18,26,22,28,09,17,,,,2.0,0.9,1.8*35
$GPRMC,182549.000,A,4919.9907,N,01120.5243,E,0.12,235.05,250507,,*07
$GPVTG,235.05,T,,M,0.12,N,0.2,K*60
$GPGGA,182550.000,4919.9906,N,01120.5241,E,1,09,0.9,454.6,M,47.7,M,,0000*53
$GPGSA,A,3,29,05,12,18,26,22,28,09,17,,,,2.0,0.9,1.8*35
$GPRMC,182550.000,A,4919.9906,N,01120.5241,E,0.48,244.36,250507,,*05
$GPVTG,244.36,T,,M,0.48,N,0.9,K*62
$GPGGA,182551.000,4919.9906,N,01120.5240,E,1,09,0.9,454.5,M,47.7,M,,0000*50
$GPGSA,A,3,29,05,12,18,26,22,28,09,17,,,,2.0,0.9,1.8*35
$GPGSV,3,1,09,09,59,293,32,26,48,166,31,17,41,084,23,29,39,163,34*79
$GPGSV,3,2,09,12,26,229,32,18,25,278,29,28,20,054,24,22,17,313,27*7B
$GPGSV,3,3,09,05,12,235,23*43
$GPRMC,182551.000,A,4919.9906,N,01120.5240,E,0.44,63.32,250507,,*3A
$GPVTG,63.32,T,,M,0.44,N,0.8,K*5C
$GPGGA,182552.000,4919.9906,N,01120.5240,E,1,09,0.9,454.6,M,47.7,M,,0000*50
$GPGSA,A,3,29,05,12,18,26,22,28,09,17,,,,2.0,0.9,1.8*35
$GPRMC,182552.000,A,4919.9906,N,01120.5240,E,0.07,87.31,250507,,*37
$GPVTG,87.31,T,,M,0.07,N,0.1,K*5B
$GPGGA,182553.000,4919.9907,N,01120.5242,E,1,09,0.9,454.4,M,47.7,M,,0000*50
$GPGSA,A,3,29,05,12,18,26,22,28,09,17,,,,2.0,0.9,1.8*35
$GPRMC,182553.000,A,4919.9907,N,01120.5242,E,0.16,30.73,250507,,*3F
$GPVTG,30.73,T,,M,0.16,N,0.3,K*53
$GPGGA,182554.000,4919.9907,N,01120.5243,E,1,09,0.9,454.5,M,47.7,M,,0000*57
$GPGSA,A,3,29,05,12,18,26,22,28,09,17,,,,2.0,0.9,1.8*35
$GPRMC,182554.000,A,4919.9907,N,01120.5243,E,0.40,224.58,250507,,*04
$GPVTG,224.58,T,,M,0.40,N,0.7,K*6A
$GPGGA,182555.000,4919.9908,N,01120.5244,E,1,09,0.9,454.3,M,47.7,M,,0000*58
$GPGSA,A,3,29,05,12,18,26,22,28,09,17,,,,2.0,0.9,1.8*35
$GPRMC,182555.000,A,4919.9908,N,01120.5244,E,0.33,47.51,250507,,*37
$GPVTG,47.51,T,,M,0.33,N,0.6,K*51
$GPGGA,182556.000,4919.9909,N,01120.5246,E,1,09,0.9,454.3,M,47.7,M,,0000*58
$GPGSA,A,3,29,05,12,18,26,22,28,09,17,,,,2.0,0.9,1.8*35
$GPRMC,182556.000,A,4919.9909,N,01120.5246,E,0.44,46.23,250507,,*33
$GPVTG,46.23,T,,M,0.44,N,0.8,K*5B
$GPGGA,182557.000,4919.9910,N,01120.5247,E,1,09,0.9,454.5,M,47.7,M,,0000*56
$GPGSA,A,3,29,05,12,18,26,22,28,09,17,,,,2.0,0.9,1.8*35
$GPRMC,182557.000,A,4919.9910,N,01120.5247,E,0.08,19.93,250507,,*32
$GPVTG,19.93,T,,M,0.08,N,0.1,K*5B
$GPGGA,182558.000,4919.9910,N,01120.5248,E,1,09,0.9,454.4,M,47.7,M,,0000*57
$GPGSA,A,3,29,05,12,18,26,22,28,09,17,,,,2.0,0.9,1.8*35
$GPRMC,182558.000,A,4919.9910,N,01120.5248,E,0.37,60.64,250507,,*38
$GPVTG,60.64,T,,M,0.37,N,0.7,K*57
$GPGGA,182559.000,4919.9911,N,01120.5247,E,1,09,0.9,454.7,M,47.7,M,,0000*5B
$GPGSA,A,3,29,05,12,18,26,22,28,09,17,,,,2.0,0.9,1.8*35
$GPRMC,182559.000,A,4919.9911,N,01120.5247,E,0.04,342.29,250507,,*0D
$GPVTG,342.29,T,,M,0.04,N,0.1,K*6B
$GPGGA,182600.000,4919.9911,N,01120.5247,E,1,09,0.9,454.8,M,47.7,M,,0000*5B
$GPGSA,A,3,29,05,12,18,26,22,28,09,17,,,,2.0,0.9,1.8*35
$GPRMC,182600.000,A,4919.9911,N,01120.5247,E,0.45,49.03,250507,,*37
$GPVTG,49.03,T,,M,0.45,N,0.8,K*57
$GPGGA,182601.000,4919.9912,N,01120.5248,E,1,09,0.9,454.7,M,47.7,M,,0000*59
$GPGSA,A,3,29,05,12,18,26,22,28,09,17,,,,2.0,0.9,1.8*35
$GPGSV,3,1,09,09,59,293,33,26,48,166,31,17,41,084,23,29,39,163,33*7F
$GPGSV,3,2,09,12,26,229,32,18,25,278,29,28,20,054,24,22,17,313,26*7A
$GPGSV,3,3,09,05,12,235,25*45
$GPRMC,182601.000,A,4919.9912,N,01120.5248,E,0.49,47.46,250507,,*39
$GPVTG,47.46,T,,M,0.49,N,0.9,K*55
$GPGGA,182602.000,4919.9912,N,01120.5249,E,1,09,0.9,454.8,M,47.7,M,,0000*54
$GPGSA,A,3,29,05,12,18,26,22,28,09,17,,,,2.0,0.9,1.8*35
$GPRMC,182602.000,A,4919.9912,N,01120.5249,E,0.33,56.90,250507,,*3D
$GPVTG,56.90,T,,M,0.33,N,0.6,K*5C
$GPGGA,182603.000,4919.9912,N,01120.5248,E,1,09,0.9,454.8,M,47.7,M,,0000*54
$GPGSA,A,3,29,05,12,18,26,22,28,09,17,,,,2.0,0.9,1.8*35
$GPRMC,182603.000,A,4919.9912,N,01120.5248,E,0.07,30.36,250507,,*36
$GPVTG,30.36,T,,M,0.07,N,0.1,K*50
$GPGGA,182604.000,4919.9912,N,01120.5248,E,1,09,0.9,454.8,M,47.7,M,,0000*53
$GPGSA,A,3,29,05,12,18,26,22,28,09,17,,,,2.0,0.9,1.8*35
$GPRMC,182604.000,A,4919.9912,N,01120.5248,E,0.53,53.68,250507,,*3E
$GPVTG,53.68,T,,M,0.53,N,1.0,K*5F
$GPGGA,182605.000,4919.9913,N,01120.5249,E,1,09,0.9,454.7,M,47.7,M,,0000*5D
$GPGSA,A,3,29,05,12,18,26,22,28,09,17,,,,2.0,0.9,1.8*35
$GPRMC,182605.000,A,4919.9913,N,01120.5249,E,0.61,56.81,250507,,*3C
$GPVTG,56.81,T,,M,0.61,N,1.1,K*5D
$GPGGA,182606.000,4919.9913,N,01120.5250,E,1,09,0.9,454.7,M,47.7,M,,0000*56
$GPGSA,A,3,29,05,12,18,26,22,28,09,17,,,,2.0,0.9,1.8*35
$GPRMC,182606.000,A,4919.9913,N,01120.5250,E,0.03,205.60,250507,,*08
$GPVTG,205.60,T,,M,0.03,N,0.1,K*63
$GPGGA,182607.000,4919.9913,N,01120.5248,E,1,09,0.9,454.8,M,47.7,M,,0000*51
$GPGSA,A,3,29,05,12,18,26,22,28,09,17,,,,2.0,0.9,1.8*35
$GPRMC,182607.000,A,4919.9913,N,01120.5248,E,0.13,221.94,250507,,*0C
$GPVTG,221.94,T,,M,0.13,N,0.2,K*6C
$GPGGA,182608.000,4919.9912,N,01120.5248,E,1,09,0.9,454.8,M,47.7,M,,0000*5F
$GPGSA,A,3,29,05,12,18,26,22,28,09,17,,,,2.0,0.9,1.8*35
$GPRMC,182608.000,A,4919.9912,N,01120.5248,E,0.09,46.23,250507,,*36
$GPVTG,46.23,T,,M,0.09,N,0.2,K*58
$GPGGA,182609.000,4919.9913,N,01120.5249,E,1,09,0.9,454.9,M,47.7,M,,0000*5F
$GPGSA,A,3,29,05,12,18,26,22,28,09,17,,,,2.0,0.9,1.8*35
$GPRMC,182609.000,A,4919.9913,N,01120.5249,E,0.23,76.94,250507,,*30
$GPVTG,76.94,T,,M,0.23,N,0.4,K*59
$GPGGA,182610.000,4919.9913,N,01120.5249,E,1,09,0.9,455.1,M,47.7,M,,0000*5E
$GPGSA,A,3,29,05,12,18,26,22,28,09,17,,,,2.0,0.9,1.8*35
$GPRMC,182610.000,A,4919.9913,N,01120.5249,E,0.11,231.67,250507,,*04
$GPVTG,231.67,T,,M,0.11,N,0.2,K*63
$GPGGA,182611.000,4919.9914,N,01120.5251,E,1,09,0.9,455.1,M,47.7,M,,0000*51
$GPGSA,A,3,29,05,12,18,26,22,28,09,17,,,,2.0,0.9,1.8*35
$GPGSV,3,1,09,09,59,293,33,26,48,166,31,17,41,084,23,29,39,163,33*7F
$GPGSV,3,2,09,12,26,229,33,18,25,278,30,28,20,054,25,22,17,313,25*71
$GPGSV,3,3,09,05,12,235,26*46
$GPRMC,182611.000,A,4919.9914,N,01120.5251,E,0.49,61.01,250507,,*31
$GPVTG,61.01,T,,M,0.49,N,0.9,K*52
$GPGGA,182612.000,4919.9915,N,01120.5254,E,1,09,0.9,455.1,M,47.7,M,,0000*56
$GPGSA,A,3,29,05,12,18,26,22,28,09,17,,,,2.0,0.9,1.8*35
$GPRMC,182612.000,A,4919.9915,N,01120.5254,E,0.43,56.33,250507,,*39
$GPVTG,56.33,T,,M,0.43,N,0.8,K*5C
$GPGGA,182613.000,4919.9916,N,01120.5256,E,1,09,0.9,455.1,M,47.7,M,,0000*56
$GPGSA,A,3,29,05,12,18,26,22,28,09,17,,,,2.0,0.9,1.8*35
$GPRMC,182613.000,A,4919.9916,N,01120.5256,E,0.12,50.11,250507,,*3B
$GPVTG,50.11,T,,M,0.12,N,0.2,K*54
$GPGGA,182614.000,4919.9916,N,01120.5256,E,1,09,0.9,455.4,M,47.7,M,,0000*54
$GPGSA,A,3,29,05,12,18,26,22,28,09,17,,,,2.0,0.9,1.8*35
$GPRMC,182614.000,A,4919.9916,N,01120.5256,E,0.08,165.16,250507,,*07
$GPVTG,165.16,T,,M,0.08,N,0.1,K*6C
$GPGGA,182615.000,4919.9916,N,01120.5257,E,1,09,0.9,455.1,M,47.7,M,,0000*51
$GPGSA,A,3,29,05,12,18,26,22,28,09,17,,,,2.0,0.9,1.8*35
$GPRMC,182615.000,A,4919.9916,N,01120.5257,E,0.67,48.84,250507,,*3B
$GPVTG,48.84,T,,M,0.67,N,1.2,K*52
$GPGGA,182616.000,4919.9917,N,01120.5258,E,1,09,0.9,455.2,M,47.7,M,,0000*5F
$GPGSA,A,3,29,05,12,18,26,22,28,09,17,,,,2.0,0.9,1.8*35
$GPRMC,182616.000,A,4919.9917,N,01120.5258,E,0.03,178.02,250507,,*08
$GPVTG,178.02,T,,M,0.03,N,0.1,K*6E
$GPGGA,182617.000,4919.9917,N,01120.5259,E,1,09,0.9,455.2,M,47.7,M,,0000*5F
$GPGSA,A,3,29,05,12,18,26,22,28,09,17,,,,2.0,0.9,1.8*35
$GPRMC,182617.000,A,4919.9917,N,01120.5259,E,0.25,51.77,250507,,*34
$GPVTG,51.77,T,,M,0.25,N,0.5,K*56
$GPGGA,182618.000,4919.9919,N,01120.5261,E,1,09,0.9,455.0,M,47.7,M,,0000*57
$GPGSA,A,3,29,05,12,18,26,22,28,09,17,,,,2.0,0.9,1.8*35
$GPRMC,182618.000,A,4919.9919,N,01120.5261,E,0.35,70.39,250507,,*36
$GPVTG,70.39,T,,M,0.35,N,0.6,K*5D
$GPGGA,182619.000,4919.9920,N,01120.5263,E,1,09,0.9,454.7,M,47.7,M,,0000*58
$GPGSA,A,3,29,05,12,18,26,22,28,09,17,,,,2.0,0.9,1.8*35
$GPRMC,182619.000,A,4919.9920,N,01120.5263,E,0.31,357.97,250507,,*09
$GPVTG,357.97,T,,M,0.31,N,0.6,K*6B
$GPGGA,182620.000,4919.9920,N,01120.5263,E,1,09,0.9,454.5,M,47.7,M,,0000*50
$GPGSA,A,3,29,05,12,18,26,22,28,09,17,,,,2.0,0.9,1.8*35
$GPRMC,182620.000,A,4919.9920,N,01120.5263,E,0.12,220.50,250507,,*08
$GPVTG,220.50,T,,M,0.12,N,0.2,K*64
$GPGGA,182621.000,4919.9921,N,01120.5264,E,1,09,0.9,454.4,M,47.7,M,,0000*56
$GPGSA,A,3,29,05,12,18,26,22,28,09,17,,,,2.0,0.9,1.8*35
$GPGSV,3,1,09,09,59,294,33,26,48,166,30,17,41,084,23,29,38,163,33*78
$GPGSV,3,2,09,12,26,229,33,18,25,278,29,28,19,054,26,22,17,313,24*71
$GPGSV,3,3,09,05,12,235,27*47
$GPRMC,182621.000,A,4919.9921,N,01120.5264,E,0.20,103.38,250507,,*02
$GPVTG,103.38,T,,M,0.20,N,0.4,K*6F
$GPGGA,182622.000,4919.9922,N,01120.5265,E,1,09,0.9,454.2,M,47.7,M,,0000*51
$GPGSA,A,3,29,05,12,18,26,22,28,09,17,,,,2.0,0.9,1.8*35
$GPRMC,182622.000,A,4919.9922,N,01120.5265,E,0.33,57.29,250507,,*31
$GPVTG,57.29,T,,M,0.33,N,0.6,K*5F
$GPGGA,182623.000,4919.9922,N,01120.5267,E,1,09,0.9,454.2,M,47.7,M,,0000*52
$GPGSA,A,3,29,05,12,18,26,22,28,09,17,,,,2.0,0.9,1.8*35
$GPRMC,182623.000,A,4919.9922,N,01120.5267,E,0.33,72.64,250507,,*3C
$GPVTG,72.64,T,,M,0.33,N,0.6,K*51
$GPGGA,182624.000,4919.9923,N,01120.5266,E,1,09,0.9,454.0,M,47.7,M,,0000*57
$GPGSA,A,3,29,05,12,18,26,22,28,09,17,,,,2.0,0.9,1.8*35
$GPRMC,182624.000,A,4919.9923,N,01120.5266,E,0.34,308.65,250507,,*03
$GPVTG,308.65,T,,M,0.34,N,0.6,K*69
$GPGGA,182625.000,4919.9923,N,01120.5265,E,1,09,0.9,454.0,M,47.7,M,,0000*55
$GPGSA,A,3,29,05,12,18,26,22,28,09,17,,,,2.0,0.9,1.8*35
$GPRMC,182625.000,A,4919.9923,N,01120.5265,E,0.06,39.16,250507,,*35
$GPVTG,39.16,T,,M,0.06,N,0.1,K*5A
$GPGGA,182626.000,4919.9924,N,01120.5264,E,1,09,0.9,453.8,M,47.7,M,,0000*5F
$GPGSA,A,3,29,05,12,18,26,22,28,09,17,,,,2.0,0.9,1.8*35
$GPRMC,182626.000,A,4919.9924,N,01120.5264,E,0.23,285.09,250507,,*0C
$GPVTG,285.09,T,,M,0.23,N,0.4,K*63
$GPGGA,182627.000,4919.9924,N,01120.5264,E,1,09,0.9,453.7,M,47.7,M,,0000*51
$GPGSA,A,3,29,05,12,18,26,22,28,09,17,,,,2.0,0.9,1.8*35
$GPRMC,182627.000,A,4919.9924,N,01120.5264,E,0.24,48.95,250507,,*3C
$GPVTG,48.95,T,,M,0.24,N,0.4,K*52
$GPGGA,182628.000,4919.9924,N,01120.5265,E,1,09,0.9,453.8,M,47.7,M,,0000*50
$GPGSA,A,3,29,05,12,18,26,22,28,09,17,,,,2.0,0.9,1.8*35
$GPRMC,182628.000,A,4919.9924,N,01120.5265,E,0.46,109.57,250507,,*0C
$GPVTG,109.57,T,,M,0.46,N,0.9,K*61
$GPGGA,182629.000,4919.9923,N,01120.5265,E,1,09,0.9,453.8,M,47.7,M,,0000*56
$GPGSA,A,3,29,05,12,18,26,22,28,09,17,,,,2.0,0.9,1.8*35
$GPRMC,182629.000,A,4919.9923,N,01120.5265,E,0.15,129.01,250507,,*0D
$GPVTG,129.01,T,,M,0.15,N,0.3,K*6C
$GPGGA,182630.000,4919.9923,N,01120.5264,E,1,09,0.9,453.9,M,47.7,M,,0000*5E
$GPGSA,A,3,29,05,12,18,26,22,28,09,17,,,,2.0,0.9,1.8*35
$GPRMC,182630.000,A,4919.9923,N,01120.5264,E,0.04,267.39,250507,,*06
$GPVTG,267.39,T,,M,0.04,N,0.1,K*6C
$GPGGA,182631.000,4919.9923,N,01120.5262,E,1,09,0.9,453.9,M,47.7,M,,0000*59
$GPGSA,A,3,29,05,12,18,26,22,28,09,17,,,,2.0,0.9,1.8*35
$GPGSV,3,1,09,09,59,294,35,26,48,166,29,17,41,084,24,29,38,163,34*76
$GPGSV,3,2,09,12,26,229,33,18,25,278,28,28,19,054,26,22,17,313,23*77
$GPGSV,3,3,09,05,12,235,28*48
$GPRMC,182631.000,A,4919.9923,N,01120.5262,E,0.13,49.17,250507,,*35
$GPVTG,49.17,T,,M,0.13,N,0.2,K*5B
$GPGGA,182632.000,4919.9922,N,01120.5261,E,1,09,0.9,453.9,M,47.7,M,,0000*58
$GPGSA,A,3,29,05,12,18,26,22,28,09,17,,,,2.0,0.9,1.8*35
$GPRMC,182632.000,A,4919.9922,N,01120.5261,E,0.11,246.82,250507,,*07
